#version,serial,flight,call,time,state,state_name,acceleration,pressure,altitude,height,speed,temperature,drogue_voltage,main_voltage,battery_voltage,accel_x,accel_y,accel_z,gyro_roll,gyro_pitch,gyro_yaw,mag_x,mag_y,mag_z,tilt,pyro,igniter_a,igniter_b,igniter_c,igniter_d,connected,locked,nsat,latitude,longitude,altitude,year,month,day,hour,minute,second,pad_dist,pad_range,pad_az,pad_el,pdop,hdop,vdop,sat01,sat02,sat03,sat04,sat05,sat06,sat07,sat08,sat09,sat10,sat11,sat12,sat13,sat14,sat15,sat16,sat17,sat18,sat19,sat20,sat21,sat22,sat23,sat24,sat25,sat26,sat27,sat28,sat29,sat30,sat31,sat32
6, 8183, 4,KN4UIR,    -0.30, 3,   boost,    1.51,  98628.00,  226.96,    0.17,    0.01, 35.6, 4.20, 4.20, 4.02,  -9.82,  -0.28,  -0.23,   0.03,   0.05,  -0.05,   7.64,  -0.31,   2.43,   2.12, 4.17, 0.00, 0.00, 0.00, 0.00, 1, 1,  9,  40.5123536, -87.0195064,   221.0, 2024,  2, 26, 15, 43, 43,        0,        0,   0,   0,   1.7,   0.9,   1.4,  0,  0,  0, 27,  0,  0, 35,  0, 36,  0,  0,  0,  0, 23,  0, 33,  0, 29,  0, 26, 29,  0,  0,  0,  0, 22, 26,  0,  0, 30,  0,  0
6, 8183, 4,KN4UIR,    -0.29, 3,   boost,   -0.00,  98633.00,  226.54,   -0.26,    0.01, 35.6, 4.20, 4.20, 4.02,  -9.82,  -0.28,  -0.23,   0.03,   0.05,  -0.05,   7.64,  -0.31,   2.43,   2.12, 4.17, 0.00, 0.00, 0.00, 0.00, 1, 1,  9,  40.5123536, -87.0195064,   221.0, 2024,  2, 26, 15, 43, 43,        0,        0,   0,   0,   1.7,   0.9,   1.4,  0,  0,  0, 27,  0,  0, 35,  0, 36,  0,  0,  0,  0, 23,  0, 33,  0, 29,  0, 26, 29,  0,  0,  0,  0, 22, 26,  0,  0, 30,  0,  0
6, 8183, 4,KN4UIR,    -0.28, 3,   boost,    2.01,  98634.00,  226.45,   -0.34,    0.02, 35.6, 4.20, 4.20, 4.02,  -9.83,  -0.28,  -0.20,   0.15,  -0.01,   0.01,   7.64,  -0.31,   2.43,   2.12, 4.17, 0.00, 0.00, 0.00, 0.00, 1, 1,  9,  40.5123536, -87.0195064,   221.0, 2024,  2, 26, 15, 43, 43,        0,        0,   0,   0,   1.7,   0.9,   1.4,  0,  0,  0, 27,  0,  0, 35,  0, 36,  0,  0,  0,  0, 23,  0, 33,  0, 29,  0, 26, 29,  0,  0,  0,  0, 22, 26,  0,  0, 30,  0,  0
6, 8183, 4,KN4UIR,    -0.27, 3,   boost,    0.50,  98636.00,  226.28,   -0.51,    0.03, 35.6, 4.20, 4.20, 4.02,  -9.81,  -0.29,  -0.17,   0.09,  -0.07,  -0.05,   7.64,  -0.31,   2.43,   2.12, 4.17, 0.00, 0.00, 0.00, 0.00, 1, 1,  9,  40.5123536, -87.0195064,   221.0, 2024,  2, 26, 15, 43, 43,        0,        0,   0,   0,   1.7,   0.9,   1.4,  0,  0,  0, 27,  0,  0, 35,  0, 36,  0,  0,  0,  0, 23,  0, 33,  0, 29,  0, 26, 29,  0,  0,  0,  0, 22, 26,  0,  0, 30,  0,  0
6, 8183, 4,KN4UIR,    -0.26, 3,   boost,    1.51,  98628.00,  226.96,    0.17,    0.03, 35.7, 4.20, 4.20, 4.02,  -9.79,  -0.33,  -0.20,   0.15,  -0.07,  -0.11,   7.64,  -0.31,   2.43,   2.12, 4.17, 0.00, 0.00, 0.00, 0.00, 1, 1,  9,  40.5123536, -87.0195064,   221.0, 2024,  2, 26, 15, 43, 43,        0,        0,   0,   0,   1.7,   0.9,   1.4,  0,  0,  0, 27,  0,  0, 35,  0, 36,  0,  0,  0,  0, 23,  0, 33,  0, 29,  0, 26, 29,  0,  0,  0,  0, 22, 26,  0,  0, 30,  0,  0
6, 8183, 4,KN4UIR,    -0.25, 3,   boost,   -1.01,  98637.00,  226.20,   -0.60,    0.03, 35.7, 4.20, 4.20, 4.02,  -9.82,  -0.32,  -0.22,   0.09,  -0.01,   0.01,   7.64,  -0.31,   2.43,   2.12, 4.17, 0.00, 0.00, 0.00, 0.00, 1, 1,  9,  40.5123536, -87.0195064,   221.0, 2024,  2, 26, 15, 43, 43,        0,        0,   0,   0,   1.7,   0.9,   1.4,  0,  0,  0, 27,  0,  0, 35,  0, 36,  0,  0,  0,  0, 23,  0, 33,  0, 29,  0, 26, 29,  0,  0,  0,  0, 22, 26,  0,  0, 30,  0,  0
6, 8183, 4,KN4UIR,    -0.24, 3,   boost,   -0.00,  98631.00,  226.71,   -0.09,    0.03, 35.7, 4.20, 4.20, 4.02,  -9.84,  -0.30,  -0.31,   0.09,   0.11,   0.01,   7.64,  -0.31,   2.42,   2.12, 4.17, 0.00, 0.00, 0.00, 0.00, 1, 1,  9,  40.5123536, -87.0195064,   221.0, 2024,  2, 26, 15, 43, 43,        0,        0,   0,   0,   1.7,   0.9,   1.4,  0,  0,  0, 27,  0,  0, 35,  0, 36,  0,  0,  0,  0, 23,  0, 33,  0, 29,  0, 26, 29,  0,  0,  0,  0, 22, 26,  0,  0, 30,  0,  0
6, 8183, 4,KN4UIR,    -0.23, 3,   boost,   -2.51,  98627.00,  227.05,    0.26,    0.02, 35.7, 4.20, 4.20, 4.02,  -9.79,  -0.30,  -0.19,   0.09,   0.05,  -0.05,   7.64,  -0.31,   2.42,   2.12, 4.17, 0.00, 0.00, 0.00, 0.00, 1, 1,  9,  40.5123536, -87.0195064,   221.0, 2024,  2, 26, 15, 43, 43,        0,        0,   0,   0,   1.7,   0.9,   1.4,  0,  0,  0, 27,  0,  0, 35,  0, 36,  0,  0,  0,  0, 23,  0, 33,  0, 29,  0, 26, 29,  0,  0,  0,  0, 22, 26,  0,  0, 30,  0,  0
6, 8183, 4,KN4UIR,    -0.22, 3,   boost,   -1.01,  98631.00,  226.71,   -0.09,    0.02, 35.6, 4.20, 4.20, 4.02,  -9.81,  -0.27,  -0.14,   0.03,  -0.01,  -0.05,   7.64,  -0.31,   2.43,   2.12, 4.17, 0.00, 0.00, 0.00, 0.00, 1, 1,  9,  40.5123536, -87.0195064,   221.0, 2024,  2, 26, 15, 43, 43,        0,        0,   0,   0,   1.7,   0.9,   1.4,  0,  0,  0, 27,  0,  0, 35,  0, 36,  0,  0,  0,  0, 23,  0, 33,  0, 29,  0, 26, 29,  0,  0,  0,  0, 22, 26,  0,  0, 30,  0,  0
6, 8183, 4,KN4UIR,    -0.21, 3,   boost,    1.01,  98625.00,  227.22,    0.43,    0.02, 35.7, 4.20, 4.20, 4.02,  -9.79,  -0.24,  -0.09,   0.03,  -0.01,   0.01,   7.64,  -0.31,   2.43,   2.12, 4.17, 0.00, 0.00, 0.00, 0.00, 1, 1,  9,  40.5123536, -87.0195064,   221.0, 2024,  2, 26, 15, 43, 43,        0,        0,   0,   0,   1.7,   0.9,   1.4,  0,  0,  0, 27,  0,  0, 35,  0, 36,  0,  0,  0,  0, 23,  0, 33,  0, 29,  0, 26, 29,  0,  0,  0,  0, 22, 26,  0,  0, 30,  0,  0
6, 8183, 4,KN4UIR,    -0.20, 3,   boost,    0.50,  98636.00,  226.28,   -0.51,    0.02, 35.7, 4.20, 4.20, 4.02,  -9.81,  -0.26,  -0.14,  -0.03,   0.05,  -0.05,   7.64,  -0.31,   2.42,   2.12, 4.17, 0.00, 0.00, 0.00, 0.00, 1, 1,  9,  40.5123536, -87.0195064,   221.0, 2024,  2, 26, 15, 43, 43,        0,        0,   0,   0,   1.7,   0.9,   1.4,  0,  0,  0, 27,  0,  0, 35,  0, 36,  0,  0,  0,  0, 23,  0, 33,  0, 29,  0, 26, 29,  0,  0,  0,  0, 22, 26,  0,  0, 30,  0,  0
6, 8183, 4,KN4UIR,    -0.19, 3,   boost,    1.01,  98632.00,  226.62,   -0.17,    0.02, 35.7, 4.20, 4.20, 4.02,  -9.81,  -0.32,  -0.13,  -0.03,  -0.01,  -0.05,   7.64,  -0.31,   2.42,   2.12, 4.17, 0.00, 0.00, 0.00, 0.00, 1, 1,  9,  40.5123536, -87.0195064,   221.0, 2024,  2, 26, 15, 43, 43,        0,        0,   0,   0,   1.7,   0.9,   1.4,  0,  0,  0, 27,  0,  0, 35,  0, 36,  0,  0,  0,  0, 23,  0, 33,  0, 29,  0, 26, 29,  0,  0,  0,  0, 22, 26,  0,  0, 30,  0,  0
6, 8183, 4,KN4UIR,    -0.18, 3,   boost,   -0.50,  98633.00,  226.54,   -0.26,    0.02, 35.7, 4.20, 4.20, 4.02,  -9.82,  -0.36,  -0.23,  -0.09,   0.05,  -0.11,   7.64,  -0.31,   2.42,   2.12, 4.17, 0.00, 0.00, 0.00, 0.00, 1, 1,  9,  40.5123536, -87.0195064,   221.0, 2024,  2, 26, 15, 43, 43,        0,        0,   0,   0,   1.7,   0.9,   1.4,  0,  0,  0, 27,  0,  0, 35,  0, 36,  0,  0,  0,  0, 23,  0, 33,  0, 29,  0, 26, 29,  0,  0,  0,  0, 22, 26,  0,  0, 30,  0,  0
6, 8183, 4,KN4UIR,    -0.17, 3,   boost,   -1.01,  98627.00,  227.05,    0.26,    0.02, 35.7, 4.20, 4.20, 4.02,  -9.84,  -0.35,  -0.23,  -0.03,  -0.01,  -0.05,   7.64,  -0.31,   2.42,   2.12, 4.17, 0.00, 0.00, 0.00, 0.00, 1, 1,  9,  40.5123536, -87.0195064,   221.0, 2024,  2, 26, 15, 43, 43,        0,        0,   0,   0,   1.7,   0.9,   1.4,  0,  0,  0, 27,  0,  0, 35,  0, 36,  0,  0,  0,  0, 23,  0, 33,  0, 29,  0, 26, 29,  0,  0,  0,  0, 22, 26,  0,  0, 30,  0,  0
6, 8183, 4,KN4UIR,    -0.16, 3,   boost,   -0.50,  98632.00,  226.62,   -0.17,    0.02, 35.7, 4.20, 4.20, 4.02,  -9.82,  -0.36,  -0.23,   0.03,  -0.01,   0.01,   7.64,  -0.31,   2.42,   2.12, 4.17, 0.00, 0.00, 0.00, 0.00, 1, 1,  9,  40.5123536, -87.0195064,   221.0, 2024,  2, 26, 15, 43, 43,        0,        0,   0,   0,   1.7,   0.9,   1.4,  0,  0,  0, 27,  0,  0, 35,  0, 36,  0,  0,  0,  0, 23,  0, 33,  0, 29,  0, 26, 29,  0,  0,  0,  0, 22, 26,  0,  0, 30,  0,  0
6, 8183, 4,KN4UIR,    -0.15, 3,   boost,    1.51,  98630.00,  226.79,    0.00,    0.02, 35.7, 4.20, 4.20, 4.02,  -9.82,  -0.28,  -0.17,   0.15,  -0.07,  -0.05,   7.64,  -0.31,   2.43,   2.12, 4.17, 0.00, 0.00, 0.00, 0.00, 1, 1,  9,  40.5123536, -87.0195064,   221.0, 2024,  2, 26, 15, 43, 43,        0,        0,   0,   0,   1.7,   0.9,   1.4,  0,  0,  0, 27,  0,  0, 35,  0, 36,  0,  0,  0,  0, 23,  0, 33,  0, 29,  0, 26, 29,  0,  0,  0,  0, 22, 26,  0,  0, 30,  0,  0
6, 8183, 4,KN4UIR,    -0.14, 3,   boost,    2.01,  98627.00,  227.05,    0.26,    0.03, 35.7, 4.20, 4.20, 4.02,  -9.81,  -0.26,  -0.13,   0.21,  -0.01,  -0.05,   7.64,  -0.31,   2.42,   2.12, 4.17, 0.00, 0.00, 0.00, 0.00, 1, 1,  9,  40.5123536, -87.0195064,   221.0, 2024,  2, 26, 15, 43, 43,        0,        0,   0,   0,   1.7,   0.9,   1.4,  0,  0,  0, 27,  0,  0, 35,  0, 36,  0,  0,  0,  0, 23,  0, 33,  0, 29,  0, 26, 29,  0,  0,  0,  0, 22, 26,  0,  0, 30,  0,  0
6, 8183, 4,KN4UIR,    -0.13, 3,   boost,   -0.00,  98627.00,  227.05,    0.26,    0.04, 35.7, 4.20, 4.20, 4.02,  -9.84,  -0.25,  -0.11,   0.27,  -0.13,  -0.05,   7.64,  -0.31,   2.43,   2.12, 4.17, 0.00, 0.00, 0.00, 0.00, 1, 1,  9,  40.5123536, -87.0195064,   221.0, 2024,  2, 26, 15, 43, 43,        0,        0,   0,   0,   1.7,   0.9,   1.4,  0,  0,  0, 27,  0,  0, 35,  0, 36,  0,  0,  0,  0, 23,  0, 33,  0, 29,  0, 26, 29,  0,  0,  0,  0, 22, 26,  0,  0, 30,  0,  0
6, 8183, 4,KN4UIR,    -0.12, 3,   boost,    1.01,  98630.00,  226.79,    0.00,    0.05, 35.7, 4.20, 4.20, 4.02,  -9.81,  -0.26,  -0.16,   0.27,  -0.01,  -0.05,   7.64,  -0.31,   2.42,   2.12, 4.17, 0.00, 0.00, 0.00, 0.00, 1, 1,  9,  40.5123536, -87.0195064,   221.0, 2024,  2, 26, 15, 43, 43,        0,        0,   0,   0,   1.7,   0.9,   1.4,  0,  0,  0, 27,  0,  0, 35,  0, 36,  0,  0,  0,  0, 23,  0, 33,  0, 29,  0, 26, 29,  0,  0,  0,  0, 22, 26,  0,  0, 30,  0,  0
6, 8183, 4,KN4UIR,    -0.11, 3,   boost,    1.01,  98633.00,  226.54,   -0.26,    0.05, 35.7, 4.20, 4.20, 4.02,  -9.81,  -0.29,  -0.22,   0.21,  -0.01,  -0.05,   7.64,  -0.31,   2.42,   2.12, 4.17, 0.00, 0.00, 0.00, 0.00, 1, 1,  9,  40.5123536, -87.0195064,   221.0, 2024,  2, 26, 15, 43, 43,        0,        0,   0,   0,   1.7,   0.9,   1.4,  0,  0,  0, 27,  0,  0, 35,  0, 36,  0,  0,  0,  0, 23,  0, 33,  0, 29,  0, 26, 29,  0,  0,  0,  0, 22, 26,  0,  0, 30,  0,  0
6, 8183, 4,KN4UIR,    -0.10, 3,   boost,   -0.50,  98625.00,  227.22,    0.43,    0.06, 35.7, 4.20, 4.20, 4.02,  -9.81,  -0.33,  -0.20,   0.15,  -0.01,  -0.11,   7.64,  -0.31,   2.43,   2.12, 4.17, 0.00, 0.00, 0.00, 0.00, 1, 1,  9,  40.5123536, -87.0195064,   221.0, 2024,  2, 26, 15, 43, 43,        0,        0,   0,   0,   1.7,   0.9,   1.4,  0,  0,  0, 27,  0,  0, 35,  0, 36,  0,  0,  0,  0, 23,  0, 33,  0, 29,  0, 26, 29,  0,  0,  0,  0, 22, 26,  0,  0, 30,  0,  0
6, 8183, 4,KN4UIR,    -0.09, 3,   boost,    1.01,  98633.00,  226.54,   -0.26,    0.06, 35.7, 4.20, 4.20, 4.02,  -9.80,  -0.34,  -0.25,   0.15,  -0.07,   0.01,   7.64,  -0.31,   2.42,   2.12, 4.17, 0.00, 0.00, 0.00, 0.00, 1, 1,  9,  40.5123536, -87.0195064,   221.0, 2024,  2, 26, 15, 43, 43,        0,        0,   0,   0,   1.7,   0.9,   1.4,  0,  0,  0, 27,  0,  0, 35,  0, 36,  0,  0,  0,  0, 23,  0, 33,  0, 29,  0, 26, 29,  0,  0,  0,  0, 22, 26,  0,  0, 30,  0,  0
6, 8183, 4,KN4UIR,    -0.08, 3,   boost,    0.50,  98632.00,  226.62,   -0.17,    0.06, 35.6, 4.20, 4.20, 4.02,  -9.79,  -0.35,  -0.21,   0.15,  -0.13,  -0.05,   7.64,  -0.31,   2.42,   2.12, 4.17, 0.00, 0.00, 0.00, 0.00, 1, 1,  9,  40.5123536, -87.0195064,   221.0, 2024,  2, 26, 15, 43, 43,        0,        0,   0,   0,   1.7,   0.9,   1.4,  0,  0,  0, 27,  0,  0, 35,  0, 36,  0,  0,  0,  0, 23,  0, 33,  0, 29,  0, 26, 29,  0,  0,  0,  0, 22, 26,  0,  0, 30,  0,  0
6, 8183, 4,KN4UIR,    -0.07, 3,   boost,   -3.02,  98625.00,  227.22,    0.43,    0.05, 35.7, 4.20, 4.20, 4.02,  -9.83,  -0.30,  -0.16,   0.21,  -0.01,  -0.05,   7.64,  -0.31,   2.42,   2.12, 4.17, 0.00, 0.00, 0.00, 0.00, 1, 1,  9,  40.5123536, -87.0195064,   221.0, 2024,  2, 26, 15, 43, 43,        0,        0,   0,   0,   1.7,   0.9,   1.4,  0,  0,  0, 27,  0,  0, 35,  0, 36,  0,  0,  0,  0, 23,  0, 33,  0, 29,  0, 26, 29,  0,  0,  0,  0, 22, 26,  0,  0, 30,  0,  0
6, 8183, 4,KN4UIR,    -0.06, 3,   boost,   -0.50,  98626.00,  227.13,    0.34,    0.08, 35.7, 4.20, 4.20, 4.02,  -9.82,  -0.27,  -0.16,   0.15,  -0.07,  -0.05,   7.64,  -0.31,   2.42,   2.12, 4.17, 0.00, 0.00, 0.00, 0.00, 1, 1,  9,  40.5123536, -87.0195064,   221.0, 2024,  2, 26, 15, 43, 43,        0,        0,   0,   0,   1.7,   0.9,   1.4,  0,  0,  0, 27,  0,  0, 35,  0, 36,  0,  0,  0,  0, 23,  0, 33,  0, 29,  0, 26, 29,  0,  0,  0,  0, 22, 26,  0,  0, 30,  0,  0
6, 8183, 4,KN4UIR,    -0.05, 3,   boost,   -0.00,  98634.00,  226.45,   -0.34,    0.22, 35.7, 4.20, 4.20, 4.02,  -9.78,  -0.26,  -0.17,   0.27,  -0.07,  -0.05,   7.64,  -0.31,   2.42,   2.12, 4.17, 0.00, 0.00, 0.00, 0.00, 1, 1,  9,  40.5123536, -87.0195064,   221.0, 2024,  2, 26, 15, 43, 43,        0,        0,   0,   0,   1.7,   0.9,   1.4,  0,  0,  0, 27,  0,  0, 35,  0, 36,  0,  0,  0,  0, 23,  0, 33,  0, 29,  0, 26, 29,  0,  0,  0,  0, 22, 26,  0,  0, 30,  0,  0
6, 8183, 4,KN4UIR,    -0.04, 3,   boost,    0.50,  98637.00,  226.20,   -0.60,    0.63, 35.6, 4.20, 4.20, 4.02,  -9.79,  -0.35,  -0.18,   0.33,  -0.13,  -0.05,   7.64,  -0.31,   2.42,   2.12, 4.17, 0.00, 0.00, 0.00, 0.00, 1, 1,  9,  40.5123536, -87.0195064,   221.0, 2024,  2, 26, 15, 43, 43,        0,        0,   0,   0,   1.7,   0.9,   1.4,  0,  0,  0, 27,  0,  0, 35,  0, 36,  0,  0,  0,  0, 23,  0, 33,  0, 29,  0, 26, 29,  0,  0,  0,  0, 22, 26,  0,  0, 30,  0,  0
6, 8183, 4,KN4UIR,    -0.03, 3,   boost,   -0.50,  98630.00,  226.79,    0.00,    1.49, 35.7, 4.20, 4.20, 4.02,  -9.76,  -0.37,  -0.13,  -0.15,  -0.07,  -0.11,   7.64,  -0.31,   2.42,   2.12, 4.17, 0.00, 0.00, 0.00, 0.00, 1, 1,  9,  40.5123536, -87.0195064,   221.0, 2024,  2, 26, 15, 43, 43,        0,        0,   0,   0,   1.7,   0.9,   1.4,  0,  0,  0, 27,  0,  0, 35,  0, 36,  0,  0,  0,  0, 23,  0, 33,  0, 29,  0, 26, 29,  0,  0,  0,  0, 22, 26,  0,  0, 30,  0,  0
6, 8183, 4,KN4UIR,    -0.02, 3,   boost,  284.14,  98631.00,  226.71,   -0.09,    2.89, 35.6, 4.20, 4.20, 4.02,  -9.79,  -0.50,  -0.04,  -0.95,  -0.01,  -0.11,   7.64,  -0.31,   2.42,   2.12, 4.17, 0.00, 0.00, 0.00, 0.00, 1, 1,  9,  40.5123536, -87.0195064,   221.0, 2024,  2, 26, 15, 43, 43,        0,        0,   0,   0,   1.7,   0.9,   1.4,  0,  0,  0, 27,  0,  0, 35,  0, 36,  0,  0,  0,  0, 23,  0, 33,  0, 29,  0, 26, 29,  0,  0,  0,  0, 22, 26,  0,  0, 30,  0,  0
6, 8183, 4,KN4UIR,    -0.01, 3,   boost,  279.62,  98852.00,  207.92,  -18.87,    4.85, 35.7, 4.20, 4.20, 4.02, -10.04,  -0.66,   0.04,  -1.74,  -0.13,  -0.11,   7.64,  -0.31,   2.42,   2.12, 4.17, 0.00, 0.00, 0.00, 0.00, 1, 1,  9,  40.5123536, -87.0195064,   221.0, 2024,  2, 26, 15, 43, 43,        0,        0,   0,   0,   1.7,   0.9,   1.4,  0,  0,  0, 27,  0,  0, 35,  0, 36,  0,  0,  0,  0, 23,  0, 33,  0, 29,  0, 26, 29,  0,  0,  0,  0, 22, 26,  0,  0, 30,  0,  0
6, 8183, 4,KN4UIR,     0.00, 3,   boost,  276.09,  98582.00,  230.88,    4.08,    7.26, 35.6, 4.20, 4.20, 4.02,-153.27,  -1.90,  -0.93,  -0.15,   2.00,   0.93,   7.64,  -0.31,   2.42,   2.12, 4.17, 0.00, 0.00, 0.00, 0.00, 1, 1,  9,  40.5123536, -87.0195064,   221.0, 2024,  2, 26, 15, 43, 43,        0,        0,   0,   0,   1.7,   0.9,   1.4,  0,  0,  0, 27,  0,  0, 35,  0, 36,  0,  0,  0,  0, 23,  0, 33,  0, 29,  0, 26, 29,  0,  0,  0,  0, 22, 26,  0,  0, 30,  0,  0
6, 8183, 4,KN4UIR,     0.00, 3,   boost,  276.09,  98582.00,  230.88,    4.08,    7.26, 35.6, 4.20, 4.20, 4.02,-153.27,  -1.90,  -0.93,  -0.15,   2.00,   0.93,   7.64,  -0.31,   2.42,   2.12, 4.17, 0.00, 0.00, 0.00, 0.00, 1, 1,  9,  40.5123536, -87.0195064,   221.0, 2024,  2, 26, 15, 43, 43,        0,        0,   0,   0,   1.7,   0.9,   1.4,  0,  0,  0, 27,  0,  0, 35,  0, 36,  0,  0,  0,  0, 23,  0, 33,  0, 29,  0, 26, 29,  0,  0,  0,  0, 22, 26,  0,  0, 30,  0,  0
6, 8183, 4,KN4UIR,     0.00, 3,   boost,  276.09,  98582.00,  230.88,    4.08,    7.26, 35.6, 4.20, 4.20, 4.02,-153.27,  -1.90,  -0.93,  -0.15,   2.00,   0.93,   7.64,  -0.31,   2.42,   2.12, 4.17, 0.00, 0.00, 0.00, 0.00, 1, 1,  9,  40.5123536, -87.0195064,   221.0, 2024,  2, 26, 15, 43, 43,        0,        0,   0,   0,   1.7,   0.9,   1.4,  0,  0,  0, 27,  0,  0, 35,  0, 36,  0,  0,  0,  0, 23,  0, 33,  0, 29,  0, 26, 29,  0,  0,  0,  0, 22, 26,  0,  0, 30,  0,  0
6, 8183, 4,KN4UIR,     0.00, 3,   boost,  276.09,  98582.00,  230.88,    4.08,    7.26, 35.6, 4.20, 4.20, 4.02,-153.27,  -1.90,  -0.93,  -0.15,   2.00,   0.93,   7.64,  -0.31,   2.42,   2.12, 4.17, 0.00, 0.00, 0.00, 0.00, 1, 1,  9,  40.5123536, -87.0195064,   221.0, 2024,  2, 26, 15, 43, 43,        0,        0,   0,   0,   1.7,   0.9,   1.4,  0,  0,  0, 27,  0,  0, 35,  0, 36,  0,  0,  0,  0, 23,  0, 33,  0, 29,  0, 26, 29,  0,  0,  0,  0, 22, 26,  0,  0, 30,  0,  0
6, 8183, 4,KN4UIR,     0.00, 3,   boost,  276.09,  98582.00,  230.88,    4.08,    7.26, 35.6, 4.20, 4.20, 4.02,-153.27,  -1.90,  -0.93,  -0.15,   2.00,   0.93,   7.64,  -0.31,   2.42,   2.12, 4.17, 0.00, 0.00, 0.00, 0.00, 1, 1,  9,  40.5123536, -87.0195064,   221.0, 2024,  2, 26, 15, 43, 43,        0,        0,   0,   0,   1.7,   0.9,   1.4,  0,  0,  0, 27,  0,  0, 35,  0, 36,  0,  0,  0,  0, 23,  0, 33,  0, 29,  0, 26, 29,  0,  0,  0,  0, 22, 26,  0,  0, 30,  0,  0
6, 8183, 4,KN4UIR,     0.00, 3,   boost,  276.09,  98582.00,  230.88,    4.08,    7.26, 35.6, 4.20, 4.20, 4.02,-153.27,  -1.90,  -0.93,  -0.15,   2.00,   0.93,   7.64,  -0.31,   2.42,   2.12, 4.17, 0.00, 0.00, 0.00, 0.00, 1, 1,  9,  40.5123536, -87.0195064,   221.0, 2024,  2, 26, 15, 43, 43,        0,        0,   0,   0,   1.7,   0.9,   1.4,  0,  0,  0, 27,  0,  0, 35,  0, 36,  0,  0,  0,  0, 23,  0, 33,  0, 29,  0, 26, 29,  0,  0,  0,  0, 22, 26,  0,  0, 30,  0,  0
6, 8183, 4,KN4UIR,     0.00, 3,   boost,  276.09,  98582.00,  230.88,    4.08,    7.26, 35.6, 4.20, 4.20, 4.02,-153.27,  -1.90,  -0.93,  -0.15,   2.00,   0.93,   7.64,  -0.31,   2.42,   2.12, 4.17, 0.00, 0.00, 0.00, 0.00, 1, 1,  9,  40.5123536, -87.0195064,   221.0, 2024,  2, 26, 15, 43, 43,        0,        0,   0,   0,   1.7,   0.9,   1.4,  0,  0,  0, 27,  0,  0, 35,  0, 36,  0,  0,  0,  0, 23,  0, 33,  0, 29,  0, 26, 29,  0,  0,  0,  0, 22, 26,  0,  0, 30,  0,  0
6, 8183, 4,KN4UIR,     0.00, 3,   boost,  276.09,  98582.00,  230.88,    4.08,    7.26, 35.6, 4.20, 4.20, 4.02,-153.27,  -1.90,  -0.93,  -0.15,   2.00,   0.93,   7.64,  -0.31,   2.42,   2.12, 4.17, 0.00, 0.00, 0.00, 0.00, 1, 1,  9,  40.5123536, -87.0195064,   221.0, 2024,  2, 26, 15, 43, 43,        0,        0,   0,   0,   1.7,   0.9,   1.4,  0,  0,  0, 27,  0,  0, 35,  0, 36,  0,  0,  0,  0, 23,  0, 33,  0, 29,  0, 26, 29,  0,  0,  0,  0, 22, 26,  0,  0, 30,  0,  0
6, 8183, 4,KN4UIR,     0.00, 3,   boost,  276.09,  98582.00,  230.88,    4.08,    7.26, 35.6, 4.20, 4.20, 4.02,-153.27,  -1.90,  -0.93,  -0.15,   2.00,   0.93,   7.64,  -0.31,   2.42,   2.12, 4.17, 0.00, 0.00, 0.00, 0.00, 1, 1,  9,  40.5123536, -87.0195064,   221.0, 2024,  2, 26, 15, 43, 43,        0,        0,   0,   0,   1.7,   0.9,   1.4,  0,  0,  0, 27,  0,  0, 35,  0, 36,  0,  0,  0,  0, 23,  0, 33,  0, 29,  0, 26, 29,  0,  0,  0,  0, 22, 26,  0,  0, 30,  0,  0
6, 8183, 4,KN4UIR,     0.00, 3,   boost,  276.09,  98582.00,  230.88,    4.08,    7.26, 35.6, 4.20, 4.20, 4.02,-153.27,  -1.90,  -0.93,  -0.15,   2.00,   0.93,   7.64,  -0.31,   2.42,   2.12, 4.17, 0.00, 0.00, 0.00, 0.00, 1, 1,  9,  40.5123536, -87.0195064,   221.0, 2024,  2, 26, 15, 43, 43,        0,        0,   0,   0,   1.7,   0.9,   1.4,  0,  0,  0, 27,  0,  0, 35,  0, 36,  0,  0,  0,  0, 23,  0, 33,  0, 29,  0, 26, 29,  0,  0,  0,  0, 22, 26,  0,  0, 30,  0,  0
6, 8183, 4,KN4UIR,     0.00, 3,   boost,  276.09,  98582.00,  230.88,    4.08,    7.26, 35.6, 4.20, 4.20, 4.02,-153.27,  -1.90,  -0.93,  -0.15,   2.00,   0.93,   7.64,  -0.31,   2.42,   2.12, 4.17, 0.00, 0.00, 0.00, 0.00, 1, 1,  9,  40.5123536, -87.0195064,   221.0, 2024,  2, 26, 15, 43, 43,        0,        0,   0,   0,   1.7,   0.9,   1.4,  0,  0,  0, 27,  0,  0, 35,  0, 36,  0,  0,  0,  0, 23,  0, 33,  0, 29,  0, 26, 29,  0,  0,  0,  0, 22, 26,  0,  0, 30,  0,  0
6, 8183, 4,KN4UIR,     0.00, 3,   boost,  276.09,  98582.00,  230.88,    4.08,    7.26, 35.6, 4.20, 4.20, 4.02,-153.27,  -1.90,  -0.93,  -0.15,   2.00,   0.93,   7.64,  -0.31,   2.42,   2.12, 4.17, 0.00, 0.00, 0.00, 0.00, 1, 1,  9,  40.5123536, -87.0195064,   221.0, 2024,  2, 26, 15, 43, 43,        0,        0,   0,   0,   1.7,   0.9,   1.4,  0,  0,  0, 27,  0,  0, 35,  0, 36,  0,  0,  0,  0, 23,  0, 33,  0, 29,  0, 26, 29,  0,  0,  0,  0, 22, 26,  0,  0, 30,  0,  0
6, 8183, 4,KN4UIR,     0.00, 3,   boost,  276.09,  98582.00,  230.88,    4.08,    7.26, 35.6, 4.20, 4.20, 4.02,-153.27,  -1.90,  -0.93,  -0.15,   2.00,   0.93,   7.64,  -0.31,   2.42,   2.12, 4.17, 0.00, 0.00, 0.00, 0.00, 1, 1,  9,  40.5123536, -87.0195064,   221.0, 2024,  2, 26, 15, 43, 43,        0,        0,   0,   0,   1.7,   0.9,   1.4,  0,  0,  0, 27,  0,  0, 35,  0, 36,  0,  0,  0,  0, 23,  0, 33,  0, 29,  0, 26, 29,  0,  0,  0,  0, 22, 26,  0,  0, 30,  0,  0
6, 8183, 4,KN4UIR,     0.00, 3,   boost,  276.09,  98582.00,  230.88,    4.08,    7.26, 35.6, 4.20, 4.20, 4.02,-153.27,  -1.90,  -0.93,  -0.15,   2.00,   0.93,   7.64,  -0.31,   2.42,   2.12, 4.17, 0.00, 0.00, 0.00, 0.00, 1, 1,  9,  40.5123536, -87.0195064,   221.0, 2024,  2, 26, 15, 43, 43,        0,        0,   0,   0,   1.7,   0.9,   1.4,  0,  0,  0, 27,  0,  0, 35,  0, 36,  0,  0,  0,  0, 23,  0, 33,  0, 29,  0, 26, 29,  0,  0,  0,  0, 22, 26,  0,  0, 30,  0,  0
6, 8183, 4,KN4UIR,     0.00, 3,   boost,  276.09,  98582.00,  230.88,    4.08,    7.26, 35.6, 4.20, 4.20, 4.02,-153.27,  -1.90,  -0.93,  -0.15,   2.00,   0.93,   7.64,  -0.31,   2.42,   2.12, 4.17, 0.00, 0.00, 0.00, 0.00, 1, 1,  9,  40.5123536, -87.0195064,   221.0, 2024,  2, 26, 15, 43, 43,        0,        0,   0,   0,   1.7,   0.9,   1.4,  0,  0,  0, 27,  0,  0, 35,  0, 36,  0,  0,  0,  0, 23,  0, 33,  0, 29,  0, 26, 29,  0,  0,  0,  0, 22, 26,  0,  0, 30,  0,  0
6, 8183, 4,KN4UIR,     0.00, 3,   boost,  276.09,  98582.00,  230.88,    4.08,    7.26, 35.6, 4.20, 4.20, 4.02,-153.27,  -1.90,  -0.93,  -0.15,   2.00,   0.93,   7.64,  -0.31,   2.42,   2.12, 4.17, 0.00, 0.00, 0.00, 0.00, 1, 1,  9,  40.5123536, -87.0195064,   221.0, 2024,  2, 26, 15, 43, 43,        0,        0,   0,   0,   1.7,   0.9,   1.4,  0,  0,  0, 27,  0,  0, 35,  0, 36,  0,  0,  0,  0, 23,  0, 33,  0, 29,  0, 26, 29,  0,  0,  0,  0, 22, 26,  0,  0, 30,  0,  0
6, 8183, 4,KN4UIR,     0.00, 3,   boost,  276.09,  98582.00,  230.88,    4.08,    7.26, 35.6, 4.20, 4.20, 4.02,-153.27,  -1.90,  -0.93,  -0.15,   2.00,   0.93,   7.64,  -0.31,   2.42,   2.11, 4.17, 0.00, 0.00, 0.00, 0.00, 1, 1,  9,  40.5123536, -87.0195064,   221.0, 2024,  2, 26, 15, 43, 43,        0,        0,   0,   0,   1.7,   0.9,   1.4,  0,  0,  0, 27,  0,  0, 35,  0, 36,  0,  0,  0,  0, 23,  0, 33,  0, 29,  0, 26, 29,  0,  0,  0,  0, 22, 26,  0,  0, 30,  0,  0
6, 8183, 4,KN4UIR,     0.00, 3,   boost,  276.09,  98582.00,  230.88,    4.08,    7.26, 35.6, 4.20, 4.20, 4.02,-153.27,  -1.90,  -0.93,  -0.15,   2.00,   0.93,   7.64,  -0.31,   2.42,   2.11, 4.17, 0.00, 0.00, 0.00, 0.00, 1, 1,  9,  40.5123536, -87.0195064,   221.0, 2024,  2, 26, 15, 43, 43,        0,        0,   0,   0,   1.7,   0.9,   1.4,  0,  0,  0, 27,  0,  0, 35,  0, 36,  0,  0,  0,  0, 23,  0, 33,  0, 29,  0, 26, 29,  0,  0,  0,  0, 22, 26,  0,  0, 30,  0,  0
6, 8183, 4,KN4UIR,     0.00, 3,   boost,  276.09,  98582.00,  230.88,    4.08,    7.26, 35.6, 4.20, 4.20, 4.02,-153.27,  -1.90,  -0.93,  -0.15,   2.00,   0.93,   7.64,  -0.31,   2.42,   2.11, 4.17, 0.00, 0.00, 0.00, 0.00, 1, 1,  9,  40.5123536, -87.0195064,   221.0, 2024,  2, 26, 15, 43, 43,        0,        0,   0,   0,   1.7,   0.9,   1.4,  0,  0,  0, 27,  0,  0, 35,  0, 36,  0,  0,  0,  0, 23,  0, 33,  0, 29,  0, 26, 29,  0,  0,  0,  0, 22, 26,  0,  0, 30,  0,  0
6, 8183, 4,KN4UIR,     0.00, 3,   boost,  276.09,  98582.00,  230.88,    4.08,    7.26, 35.6, 4.20, 4.20, 4.02,-153.27,  -1.90,  -0.93,  -0.15,   2.00,   0.93,   7.64,  -0.31,   2.42,   2.11, 4.17, 0.00, 0.00, 0.00, 0.00, 1, 1,  9,  40.5123536, -87.0195064,   221.0, 2024,  2, 26, 15, 43, 43,        0,        0,   0,   0,   1.7,   0.9,   1.4,  0,  0,  0, 27,  0,  0, 35,  0, 36,  0,  0,  0,  0, 23,  0, 33,  0, 29,  0, 26, 29,  0,  0,  0,  0, 22, 26,  0,  0, 30,  0,  0
6, 8183, 4,KN4UIR,     0.00, 3,   boost,  276.09,  98582.00,  230.88,    4.08,    7.26, 35.6, 4.20, 4.20, 4.02,-153.27,  -1.90,  -0.93,  -0.15,   2.00,   0.93,   7.64,  -0.31,   2.42,   2.11, 4.17, 0.00, 0.00, 0.00, 0.00, 1, 1,  9,  40.5123536, -87.0195064,   221.0, 2024,  2, 26, 15, 43, 43,        0,        0,   0,   0,   1.7,   0.9,   1.4,  0,  0,  0, 27,  0,  0, 35,  0, 36,  0,  0,  0,  0, 23,  0, 33,  0, 29,  0, 26, 29,  0,  0,  0,  0, 22, 26,  0,  0, 30,  0,  0
6, 8183, 4,KN4UIR,     0.00, 3,   boost,  276.09,  98582.00,  230.88,    4.08,    7.26, 35.6, 4.20, 4.20, 4.02,-153.27,  -1.90,  -0.93,  -0.15,   2.00,   0.93,   7.64,  -0.31,   2.42,   2.11, 4.17, 0.00, 0.00, 0.00, 0.00, 1, 1,  9,  40.5123536, -87.0195064,   221.0, 2024,  2, 26, 15, 43, 43,        0,        0,   0,   0,   1.7,   0.9,   1.4,  0,  0,  0, 27,  0,  0, 35,  0, 36,  0,  0,  0,  0, 23,  0, 33,  0, 29,  0, 26, 29,  0,  0,  0,  0, 22, 26,  0,  0, 30,  0,  0
6, 8183, 4,KN4UIR,     0.00, 3,   boost,  276.09,  98582.00,  230.88,    4.08,    7.26, 35.6, 4.20, 4.20, 4.02,-153.27,  -1.90,  -0.93,  -0.15,   2.00,   0.93,   7.64,  -0.31,   2.42,   2.11, 4.17, 0.00, 0.00, 0.00, 0.00, 1, 1,  9,  40.5123536, -87.0195064,   221.0, 2024,  2, 26, 15, 43, 43,        0,        0,   0,   0,   1.7,   0.9,   1.4,  0,  0,  0, 27,  0,  0, 35,  0, 36,  0,  0,  0,  0, 23,  0, 33,  0, 29,  0, 26, 29,  0,  0,  0,  0, 22, 26,  0,  0, 30,  0,  0
6, 8183, 4,KN4UIR,     0.00, 3,   boost,  276.09,  98582.00,  230.88,    4.08,    7.26, 35.6, 4.20, 4.20, 4.02,-153.27,  -1.90,  -0.93,  -0.15,   2.00,   0.93,   7.64,  -0.31,   2.42,   2.11, 4.17, 0.00, 0.00, 0.00, 0.00, 1, 1,  9,  40.5123536, -87.0195064,   221.0, 2024,  2, 26, 15, 43, 43,        0,        0,   0,   0,   1.7,   0.9,   1.4,  0,  0,  0, 27,  0,  0, 35,  0, 36,  0,  0,  0,  0, 23,  0, 33,  0, 29,  0, 26, 29,  0,  0,  0,  0, 22, 26,  0,  0, 30,  0,  0
6, 8183, 4,KN4UIR,     0.00, 3,   boost,  276.09,  98582.00,  230.88,    4.08,    7.26, 35.6, 4.20, 4.20, 4.02,-153.27,  -1.90,  -0.93,  -0.15,   2.00,   0.93,   7.64,  -0.31,   2.42,   2.11, 4.17, 0.00, 0.00, 0.00, 0.00, 1, 1,  9,  40.5123536, -87.0195064,   221.0, 2024,  2, 26, 15, 43, 43,        0,        0,   0,   0,   1.7,   0.9,   1.4,  0,  0,  0, 27,  0,  0, 35,  0, 36,  0,  0,  0,  0, 23,  0, 33,  0, 29,  0, 26, 29,  0,  0,  0,  0, 22, 26,  0,  0, 30,  0,  0
6, 8183, 4,KN4UIR,     0.00, 3,   boost,  276.09,  98582.00,  230.88,    4.08,    7.26, 35.6, 4.20, 4.20, 4.02,-153.27,  -1.90,  -0.93,  -0.15,   2.00,   0.93,   7.64,  -0.31,   2.42,   2.11, 4.17, 0.00, 0.00, 0.00, 0.00, 1, 1,  9,  40.5123536, -87.0195064,   221.0, 2024,  2, 26, 15, 43, 43,        0,        0,   0,   0,   1.7,   0.9,   1.4,  0,  0,  0, 27,  0,  0, 35,  0, 36,  0,  0,  0,  0, 23,  0, 33,  0, 29,  0, 26, 29,  0,  0,  0,  0, 22, 26,  0,  0, 30,  0,  0
6, 8183, 4,KN4UIR,     0.00, 3,   boost,  276.09,  98582.00,  230.88,    4.08,    7.26, 35.6, 4.20, 4.20, 4.02,-153.27,  -1.90,  -0.93,  -0.15,   2.00,   0.93,   7.64,  -0.31,   2.42,   2.11, 4.17, 0.00, 0.00, 0.00, 0.00, 1, 1,  9,  40.5123536, -87.0195064,   221.0, 2024,  2, 26, 15, 43, 43,        0,        0,   0,   0,   1.7,   0.9,   1.4,  0,  0,  0, 27,  0,  0, 35,  0, 36,  0,  0,  0,  0, 23,  0, 33,  0, 29,  0, 26, 29,  0,  0,  0,  0, 22, 26,  0,  0, 30,  0,  0
6, 8183, 4,KN4UIR,     0.00, 3,   boost,  276.09,  98582.00,  230.88,    4.08,    7.26, 35.6, 4.20, 4.20, 4.02,-153.27,  -1.90,  -0.93,  -0.15,   2.00,   0.93,   7.64,  -0.31,   2.42,   2.11, 4.17, 0.00, 0.00, 0.00, 0.00, 1, 1,  9,  40.5123536, -87.0195064,   221.0, 2024,  2, 26, 15, 43, 43,        0,        0,   0,   0,   1.7,   0.9,   1.4,  0,  0,  0, 27,  0,  0, 35,  0, 36,  0,  0,  0,  0, 23,  0, 33,  0, 29,  0, 26, 29,  0,  0,  0,  0, 22, 26,  0,  0, 30,  0,  0
6, 8183, 4,KN4UIR,     0.00, 3,   boost,  276.09,  98582.00,  230.88,    4.08,    7.26, 35.6, 4.20, 4.20, 4.02,-153.27,  -1.90,  -0.93,  -0.15,   2.00,   0.93,   7.64,  -0.31,   2.42,   2.11, 4.17, 0.00, 0.00, 0.00, 0.00, 1, 1,  9,  40.5123536, -87.0195064,   221.0, 2024,  2, 26, 15, 43, 43,        0,        0,   0,   0,   1.7,   0.9,   1.4,  0,  0,  0, 27,  0,  0, 35,  0, 36,  0,  0,  0,  0, 23,  0, 33,  0, 29,  0, 26, 29,  0,  0,  0,  0, 22, 26,  0,  0, 30,  0,  0
6, 8183, 4,KN4UIR,     0.00, 3,   boost,  276.09,  98582.00,  230.88,    4.08,    7.26, 35.6, 4.20, 4.20, 4.02,-153.27,  -1.90,  -0.93,  -0.15,   2.00,   0.93,   7.64,  -0.31,   2.42,   2.11, 4.17, 0.00, 0.00, 0.00, 0.00, 1, 1,  9,  40.5123536, -87.0195064,   221.0, 2024,  2, 26, 15, 43, 43,        0,        0,   0,   0,   1.7,   0.9,   1.4,  0,  0,  0, 27,  0,  0, 35,  0, 36,  0,  0,  0,  0, 23,  0, 33,  0, 29,  0, 26, 29,  0,  0,  0,  0, 22, 26,  0,  0, 30,  0,  0
6, 8183, 4,KN4UIR,     0.00, 3,   boost,  276.09,  98582.00,  230.88,    4.08,    7.26, 35.6, 4.20, 4.20, 4.02,-153.27,  -1.90,  -0.93,  -0.15,   2.00,   0.93,   7.64,  -0.31,   2.42,   2.11, 4.17, 0.00, 0.00, 0.00, 0.00, 1, 1,  9,  40.5123536, -87.0195064,   221.0, 2024,  2, 26, 15, 43, 43,        0,        0,   0,   0,   1.7,   0.9,   1.4,  0,  0,  0, 27,  0,  0, 35,  0, 36,  0,  0,  0,  0, 23,  0, 33,  0, 29,  0, 26, 29,  0,  0,  0,  0, 22, 26,  0,  0, 30,  0,  0
6, 8183, 4,KN4UIR,     0.00, 3,   boost,  276.09,  98582.00,  230.88,    4.08,    7.26, 35.6, 4.20, 4.20, 4.02,-153.27,  -1.90,  -0.93,  -0.15,   2.00,   0.93,   7.64,  -0.31,   2.42,   2.11, 4.17, 0.00, 0.00, 0.00, 0.00, 1, 1,  9,  40.5123536, -87.0195064,   221.0, 2024,  2, 26, 15, 43, 43,        0,        0,   0,   0,   1.7,   0.9,   1.4,  0,  0,  0, 27,  0,  0, 35,  0, 36,  0,  0,  0,  0, 23,  0, 33,  0, 29,  0, 26, 29,  0,  0,  0,  0, 22, 26,  0,  0, 30,  0,  0
6, 8183, 4,KN4UIR,     0.00, 3,   boost,  276.09,  98582.00,  230.88,    4.08,    7.26, 35.6, 4.20, 4.20, 4.02,-153.27,  -1.90,  -0.93,  -0.15,   2.00,   0.93,   7.64,  -0.31,   2.42,   2.11, 4.17, 0.00, 0.00, 0.00, 0.00, 1, 1,  9,  40.5123536, -87.0195064,   221.0, 2024,  2, 26, 15, 43, 43,        0,        0,   0,   0,   1.7,   0.9,   1.4,  0,  0,  0, 27,  0,  0, 35,  0, 36,  0,  0,  0,  0, 23,  0, 33,  0, 29,  0, 26, 29,  0,  0,  0,  0, 22, 26,  0,  0, 30,  0,  0
6, 8183, 4,KN4UIR,     0.00, 3,   boost,  276.09,  98582.00,  230.88,    4.08,    7.26, 35.6, 4.20, 4.20, 4.02,-153.27,  -1.90,  -0.93,  -0.15,   2.00,   0.93,   7.64,  -0.31,   2.42,   2.11, 4.17, 0.00, 0.00, 0.00, 0.00, 1, 1,  9,  40.5123536, -87.0195064,   221.0, 2024,  2, 26, 15, 43, 43,        0,        0,   0,   0,   1.7,   0.9,   1.4,  0,  0,  0, 27,  0,  0, 35,  0, 36,  0,  0,  0,  0, 23,  0, 33,  0, 29,  0, 26, 29,  0,  0,  0,  0, 22, 26,  0,  0, 30,  0,  0
6, 8183, 4,KN4UIR,     0.00, 3,   boost,  276.09,  98582.00,  230.88,    4.08,    7.26, 35.6, 4.20, 4.20, 4.02,-153.27,  -1.90,  -0.93,  -0.15,   2.00,   0.93,   7.64,  -0.31,   2.42,   2.11, 4.17, 0.00, 0.00, 0.00, 0.00, 1, 1,  9,  40.5123536, -87.0195064,   221.0, 2024,  2, 26, 15, 43, 43,        0,        0,   0,   0,   1.7,   0.9,   1.4,  0,  0,  0, 27,  0,  0, 35,  0, 36,  0,  0,  0,  0, 23,  0, 33,  0, 29,  0, 26, 29,  0,  0,  0,  0, 22, 26,  0,  0, 30,  0,  0
6, 8183, 4,KN4UIR,     0.01, 3,   boost,  287.66,  98559.00,  232.84,    6.04,    9.97, 35.7, 4.20, 4.20, 4.02,-156.88,   0.70,   2.41,  -3.51, -11.97,   4.59,   7.64,  -0.31,   2.42,   2.21, 4.17, 0.00, 0.00, 0.00, 0.00, 1, 1,  9,  40.5123536, -87.0195064,   221.0, 2024,  2, 26, 15, 43, 43,        0,        0,   0,   0,   1.7,   0.9,   1.4,  0,  0,  0, 27,  0,  0, 35,  0, 36,  0,  0,  0,  0, 23,  0, 33,  0, 29,  0, 26, 29,  0,  0,  0,  0, 22, 26,  0,  0, 30,  0,  0
6, 8183, 4,KN4UIR,     0.01, 3,   boost,  287.66,  98559.00,  232.84,    6.04,    9.97, 35.7, 4.20, 4.20, 4.02,-156.88,   0.70,   2.41,  -3.51, -11.97,   4.59,   7.64,  -0.31,   2.42,   2.21, 4.17, 0.00, 0.00, 0.00, 0.00, 1, 1,  9,  40.5123536, -87.0195064,   221.0, 2024,  2, 26, 15, 43, 43,        0,        0,   0,   0,   1.7,   0.9,   1.4,  0,  0,  0, 27,  0,  0, 35,  0, 36,  0,  0,  0,  0, 23,  0, 33,  0, 29,  0, 26, 29,  0,  0,  0,  0, 22, 26,  0,  0, 30,  0,  0
6, 8183, 4,KN4UIR,     0.02, 3,   boost,  281.63,  98544.00,  234.11,    7.32,   12.83, 35.7, 4.20, 4.19, 4.01,-156.88,  -0.10,   8.66, -17.61, -12.65,  19.18,   7.64,  -0.31,   2.42,   2.44, 4.16, 0.00, 0.00, 0.00, 0.00, 1, 1,  9,  40.5123536, -87.0195064,   221.0, 2024,  2, 26, 15, 43, 43,        0,        0,   0,   0,   1.7,   0.9,   1.4,  0,  0,  0, 27,  0,  0, 35,  0, 36,  0,  0,  0,  0, 23,  0, 33,  0, 29,  0, 26, 29,  0,  0,  0,  0, 22, 26,  0,  0, 30,  0,  0
6, 8183, 4,KN4UIR,     0.02, 3,   boost,  281.63,  98544.00,  234.11,    7.32,   12.83, 35.7, 4.20, 4.19, 4.01,-156.88,  -0.10,   8.66, -17.61, -12.65,  19.18,   7.64,  -0.31,   2.42,   2.44, 4.16, 0.00, 0.00, 0.00, 0.00, 1, 1,  9,  40.5123536, -87.0195064,   221.0, 2024,  2, 26, 15, 43, 43,        0,        0,   0,   0,   1.7,   0.9,   1.4,  0,  0,  0, 27,  0,  0, 35,  0, 36,  0,  0,  0,  0, 23,  0, 33,  0, 29,  0, 26, 29,  0,  0,  0,  0, 22, 26,  0,  0, 30,  0,  0
6, 8183, 4,KN4UIR,     0.03, 3,   boost,  309.29,  98557.00,  233.01,    6.21,   15.78, 35.7, 4.20, 4.19, 4.01,-156.88,   7.61,  10.38, -34.70,  -5.26,  27.90,   7.64,  -0.31,   2.42,   2.71, 4.16, 0.00, 0.00, 0.00, 0.00, 1, 1,  9,  40.5123536, -87.0195064,   221.0, 2024,  2, 26, 15, 43, 43,        0,        0,   0,   0,   1.7,   0.9,   1.4,  0,  0,  0, 27,  0,  0, 35,  0, 36,  0,  0,  0,  0, 23,  0, 33,  0, 29,  0, 26, 29,  0,  0,  0,  0, 22, 26,  0,  0, 30,  0,  0
6, 8183, 4,KN4UIR,     0.04, 3,   boost,  300.23,  98557.00,  233.01,    6.21,   18.78, 35.7, 4.20, 4.19, 4.01,-156.88,  15.77,   3.87, -40.87,  -4.10,  20.64,   7.64,  -0.31,   2.42,   2.91, 4.16, 0.00, 0.00, 0.00, 0.00, 1, 1,  9,  40.5123536, -87.0195064,   221.0, 2024,  2, 26, 15, 43, 43,        0,        0,   0,   0,   1.7,   0.9,   1.4,  0,  0,  0, 27,  0,  0, 35,  0, 36,  0,  0,  0,  0, 23,  0, 33,  0, 29,  0, 26, 29,  0,  0,  0,  0, 22, 26,  0,  0, 30,  0,  0
6, 8183, 4,KN4UIR,     0.05, 3,   boost,  312.30,  98548.00,  233.77,    6.98,   21.84, 35.7, 4.20, 4.19, 4.01,-156.88,  -2.66, -23.82, -29.94,  16.83,  -0.90,   7.64,  -0.31,   2.42,   2.82, 4.16, 0.00, 0.00, 0.00, 0.00, 1, 1,  9,  40.5123536, -87.0195064,   221.0, 2024,  2, 26, 15, 43, 43,        0,        0,   0,   0,   1.7,   0.9,   1.4,  0,  0,  0, 27,  0,  0, 35,  0, 36,  0,  0,  0,  0, 23,  0, 33,  0, 29,  0, 26, 29,  0,  0,  0,  0, 22, 26,  0,  0, 30,  0,  0
6, 8183, 4,KN4UIR,     0.06, 3,   boost,  315.32,  98539.00,  234.54,    7.75,   24.95, 35.6, 4.20, 4.19, 4.01,-156.88,   5.03,  -8.82,  11.38,   9.21, -14.09,   7.64,  -0.31,   2.42,   2.65, 4.16, 0.00, 0.00, 0.00, 0.00, 1, 1,  9,  40.5123536, -87.0195064,   221.0, 2024,  2, 26, 15, 43, 43,        0,        0,   0,   0,   1.7,   0.9,   1.4,  0,  0,  0, 27,  0,  0, 35,  0, 36,  0,  0,  0,  0, 23,  0, 33,  0, 29,  0, 26, 29,  0,  0,  0,  0, 22, 26,  0,  0, 30,  0,  0
6, 8183, 4,KN4UIR,     0.07, 3,   boost,  311.80,  98502.00,  237.69,   10.90,   28.10, 35.7, 4.20, 4.19, 4.01,-156.88,  19.19,   6.48,  49.10,   3.10, -12.14,   7.64,  -0.31,   2.42,   2.53, 4.16, 0.00, 0.00, 0.00, 0.00, 1, 1,  9,  40.5123536, -87.0195064,   221.0, 2024,  2, 26, 15, 43, 43,        0,        0,   0,   0,   1.7,   0.9,   1.4,  0,  0,  0, 27,  0,  0, 35,  0, 36,  0,  0,  0,  0, 23,  0, 33,  0, 29,  0, 26, 29,  0,  0,  0,  0, 22, 26,  0,  0, 30,  0,  0
6, 8183, 4,KN4UIR,     0.08, 3,   boost,  326.89,  98515.00,  236.58,    9.79,   31.28, 35.7, 4.20, 4.19, 4.01,-156.88,  -7.06, -11.37,  31.83,   7.92, -22.08,   7.64,  -0.31,   2.42,   2.30, 4.16, 0.00, 0.00, 0.00, 0.00, 1, 1,  9,  40.5123536, -87.0195064,   221.0, 2024,  2, 26, 15, 43, 43,        0,        0,   0,   0,   1.7,   0.9,   1.4,  0,  0,  0, 27,  0,  0, 35,  0, 36,  0,  0,  0,  0, 23,  0, 33,  0, 29,  0, 26, 29,  0,  0,  0,  0, 22, 26,  0,  0, 30,  0,  0
6, 8183, 4,KN4UIR,     0.09, 3,   boost,  322.36,  98484.00,  239.22,   12.43,   34.49, 35.7, 4.20, 4.19, 4.01,-156.88,   5.42,  14.82,   0.03, -19.67, -19.58,   7.64,  -0.30,   2.41,   2.23, 4.16, 0.00, 0.00, 0.00, 0.00, 1, 1,  9,  40.5123536, -87.0195064,   221.0, 2024,  2, 26, 15, 43, 43,        0,        0,   0,   0,   1.7,   0.9,   1.4,  0,  0,  0, 27,  0,  0, 35,  0, 36,  0,  0,  0,  0, 23,  0, 33,  0, 29,  0, 26, 29,  0,  0,  0,  0, 22, 26,  0,  0, 30,  0,  0
6, 8183, 4,KN4UIR,     0.10, 3,   boost,  323.87,  98452.00,  241.95,   15.16,   37.73, 35.7, 4.20, 4.19, 4.01,-156.88, -14.22,  -3.47,  59.17, -19.06,  30.83,   7.64,  -0.30,   2.41,   2.59, 4.16, 0.00, 0.00, 0.00, 0.00, 1, 1,  9,  40.5123536, -87.0195064,   221.0, 2024,  2, 26, 15, 43, 43,        0,        0,   0,   0,   1.7,   0.9,   1.4,  0,  0,  0, 27,  0,  0, 35,  0, 36,  0,  0,  0,  0, 23,  0, 33,  0, 29,  0, 26, 29,  0,  0,  0,  0, 22, 26,  0,  0, 30,  0,  0
6, 8183, 4,KN4UIR,     0.11, 3,   boost,  329.40,  98435.00,  243.40,   16.60,   40.99, 35.7, 4.20, 4.19, 4.01,-156.88,   6.35,  -5.11,  32.07,  -9.66,   9.41,   7.64,  -0.30,   2.41,   2.72, 4.16, 0.00, 0.00, 0.00, 0.00, 1, 1,  9,  40.5123536, -87.0195064,   221.0, 2024,  2, 26, 15, 43, 43,        0,        0,   0,   0,   1.7,   0.9,   1.4,  0,  0,  0, 27,  0,  0, 35,  0, 36,  0,  0,  0,  0, 23,  0, 33,  0, 29,  0, 26, 29,  0,  0,  0,  0, 22, 26,  0,  0, 30,  0,  0
6, 8183, 4,KN4UIR,     0.12, 3,   boost,  327.89,  98406.00,  245.87,   19.08,   44.28, 35.7, 4.20, 4.19, 4.01,-156.88,   9.33,   6.09,  55.82, -14.17,  21.19,   7.64,  -0.30,   2.42,   2.98, 4.16, 0.00, 0.00, 0.00, 0.00, 1, 1,  9,  40.5123536, -87.0195064,   221.0, 2024,  2, 26, 15, 43, 43,        0,        0,   0,   0,   1.7,   0.9,   1.4,  0,  0,  0, 27,  0,  0, 35,  0, 36,  0,  0,  0,  0, 23,  0, 33,  0, 29,  0, 26, 29,  0,  0,  0,  0, 22, 26,  0,  0, 30,  0,  0
6, 8183, 4,KN4UIR,     0.13, 3,   boost,  334.93,  98366.00,  249.28,   22.49,   47.59, 35.7, 4.20, 4.19, 4.01,-156.88,   1.55,   3.62,  70.04, -12.59,  16.43,   7.64,  -0.30,   2.42,   3.18, 4.16, 0.00, 0.00, 0.00, 0.00, 1, 1,  9,  40.5123536, -87.0195064,   221.0, 2024,  2, 26, 15, 43, 43,        0,        0,   0,   0,   1.7,   0.9,   1.4,  0,  0,  0, 27,  0,  0, 35,  0, 36,  0,  0,  0,  0, 23,  0, 33,  0, 29,  0, 26, 29,  0,  0,  0,  0, 22, 26,  0,  0, 30,  0,  0
6, 8183, 4,KN4UIR,     0.14, 3,   boost,  334.93,  98339.00,  251.58,   24.79,   50.92, 35.7, 4.20, 4.19, 4.01,-156.88,   1.43,  -2.04,  68.57, -11.18,  14.97,   7.64,  -0.30,   2.42,   3.37, 4.16, 0.00, 0.00, 0.00, 0.00, 1, 1,  9,  40.5123536, -87.0195064,   221.0, 2024,  2, 26, 15, 43, 43,        0,        0,   0,   0,   1.7,   0.9,   1.4,  0,  0,  0, 27,  0,  0, 35,  0, 36,  0,  0,  0,  0, 23,  0, 33,  0, 29,  0, 26, 29,  0,  0,  0,  0, 22, 26,  0,  0, 30,  0,  0
6, 8183, 4,KN4UIR,     0.15, 3,   boost,  337.45,  98312.00,  253.88,   27.09,   54.28, 35.7, 4.20, 4.19, 4.01,-156.88,   1.43,  -2.04,  68.57, -11.18,  14.97,   7.64,  -0.30,   2.43,   3.56, 4.16, 0.00, 0.00, 0.00, 0.00, 1, 1,  9,  40.5123536, -87.0195064,   221.0, 2024,  2, 26, 15, 43, 43,        0,        0,   0,   0,   1.7,   0.9,   1.4,  0,  0,  0, 27,  0,  0, 35,  0, 36,  0,  0,  0,  0, 23,  0, 33,  0, 29,  0, 26, 29,  0,  0,  0,  0, 22, 26,  0,  0, 30,  0,  0
6, 8183, 4,KN4UIR,     0.16, 3,   boost,  338.46,  98286.00,  256.10,   29.31,   57.65, 35.7, 4.20, 4.19, 4.01,-156.88,   2.25,  -0.72,  67.96,  -7.64,  12.58,   7.64,  -0.30,   2.43,   3.70, 4.16, 0.00, 0.00, 0.00, 0.00, 1, 1,  9,  40.5123536, -87.0195064,   221.0, 2024,  2, 26, 15, 43, 43,        0,        0,   0,   0,   1.7,   0.9,   1.4,  0,  0,  0, 27,  0,  0, 35,  0, 36,  0,  0,  0,  0, 23,  0, 33,  0, 29,  0, 26, 29,  0,  0,  0,  0, 22, 26,  0,  0, 30,  0,  0
6, 8183, 4,KN4UIR,     0.17, 3,   boost,  342.98,  98231.00,  260.80,   34.00,   61.04, 35.7, 4.20, 4.19, 4.01,-156.88,   1.19,  -1.62,  67.47,  -7.15,  11.85,   7.64,  -0.30,   2.43,   3.84, 4.16, 0.00, 0.00, 0.00, 0.00, 1, 1,  9,  40.5123536, -87.0195064,   221.0, 2024,  2, 26, 15, 43, 43,        0,        0,   0,   0,   1.7,   0.9,   1.4,  0,  0,  0, 27,  0,  0, 35,  0, 36,  0,  0,  0,  0, 23,  0, 33,  0, 29,  0, 26, 29,  0,  0,  0,  0, 22, 26,  0,  0, 30,  0,  0
6, 8183, 4,KN4UIR,     0.18, 3,   boost,  340.97,  98209.00,  262.67,   35.88,   64.45, 35.7, 4.20, 4.19, 4.01,-156.88,  -0.53,  -1.29,  67.60,  -4.10,   9.72,   7.64,  -0.30,   2.43,   3.94, 4.16, 0.00, 0.00, 0.00, 0.00, 1, 1,  9,  40.5123536, -87.0195064,   221.0, 2024,  2, 26, 15, 43, 43,        0,        0,   0,   0,   1.7,   0.9,   1.4,  0,  0,  0, 27,  0,  0, 35,  0, 36,  0,  0,  0,  0, 23,  0, 33,  0, 29,  0, 26, 29,  0,  0,  0,  0, 22, 26,  0,  0, 30,  0,  0
6, 8183, 4,KN4UIR,     0.19, 3,   boost,  345.50,  98160.00,  266.86,   40.06,   67.88, 35.7, 4.20, 4.19, 4.01,-156.88,  -0.00,  -2.58,  66.44,  -0.93,   7.21,   7.64,  -0.30,   2.43,   4.01, 4.16, 0.00, 0.00, 0.00, 0.00, 1, 1,  9,  40.5123536, -87.0195064,   221.0, 2024,  2, 26, 15, 43, 43,        0,        0,   0,   0,   1.7,   0.9,   1.4,  0,  0,  0, 27,  0,  0, 35,  0, 36,  0,  0,  0,  0, 23,  0, 33,  0, 29,  0, 26, 29,  0,  0,  0,  0, 22, 26,  0,  0, 30,  0,  0
6, 8183, 4,KN4UIR,     0.20, 3,   boost,  345.50,  98098.00,  272.15,   45.36,   71.32, 35.6, 4.20, 4.19, 4.01,-156.88,   1.54,  -2.81,  65.09,   1.88,   4.77,   7.64,  -0.31,   2.43,   4.03, 4.16, 0.00, 0.00, 0.00, 0.00, 1, 1,  9,  40.5123536, -87.0195064,   221.0, 2024,  2, 26, 15, 43, 43,        0,        0,   0,   0,   1.7,   0.9,   1.4,  0,  0,  0, 27,  0,  0, 35,  0, 36,  0,  0,  0,  0, 23,  0, 33,  0, 29,  0, 26, 29,  0,  0,  0,  0, 22, 26,  0,  0, 30,  0,  0
6, 8183, 4,KN4UIR,     0.21, 3,   boost,  346.50,  98062.00,  275.23,   48.44,   74.77, 35.7, 4.20, 4.19, 4.01,-156.88,   1.35,  -1.51,  63.26,   4.20,   2.09,   7.64,  -0.30,   2.43,   4.02, 4.16, 0.00, 0.00, 0.00, 0.00, 1, 1,  9,  40.5123536, -87.0195064,   221.0, 2024,  2, 26, 15, 43, 43,        0,        0,   0,   0,   1.7,   0.9,   1.4,  0,  0,  0, 27,  0,  0, 35,  0, 36,  0,  0,  0,  0, 23,  0, 33,  0, 29,  0, 26, 29,  0,  0,  0,  0, 22, 26,  0,  0, 30,  0,  0
6, 8183, 4,KN4UIR,     0.22, 3,   boost,  349.02,  98027.00,  278.22,   51.43,   78.23, 35.6, 4.20, 4.19, 4.01,-156.88,   0.10,  -1.89,  60.88,   6.46,  -0.48,   7.64,  -0.30,   2.43,   3.98, 4.16, 0.00, 0.00, 0.00, 0.00, 1, 1,  9,  40.5123536, -87.0195064,   221.0, 2024,  2, 26, 15, 43, 43,        0,        0,   0,   0,   1.7,   0.9,   1.4,  0,  0,  0, 27,  0,  0, 35,  0, 36,  0,  0,  0,  0, 23,  0, 33,  0, 29,  0, 26, 29,  0,  0,  0,  0, 22, 26,  0,  0, 30,  0,  0
6, 8183, 4,KN4UIR,     0.23, 3,   boost,  348.01,  97957.00,  284.21,   57.42,   81.70, 35.6, 4.20, 4.19, 4.01,-156.88,  -0.06,  -2.18,  59.84,   9.02,  -3.65,   7.64,  -0.30,   2.43,   3.89, 4.16, 0.00, 0.00, 0.00, 0.00, 1, 1,  9,  40.5123536, -87.0195064,   221.0, 2024,  2, 26, 15, 43, 43,        0,        0,   0,   0,   1.7,   0.9,   1.4,  0,  0,  0, 27,  0,  0, 35,  0, 36,  0,  0,  0,  0, 23,  0, 33,  0, 29,  0, 26, 29,  0,  0,  0,  0, 22, 26,  0,  0, 30,  0,  0
6, 8183, 4,KN4UIR,     0.24, 3,   boost,  348.01,  97907.00,  288.49,   61.70,   85.17, 35.6, 4.20, 4.19, 4.01,-156.88,   1.16,  -2.28,  58.44,  11.34,  -6.95,   7.64,  -0.30,   2.44,   3.77, 4.16, 0.00, 0.00, 0.00, 0.00, 1, 1,  9,  40.5123536, -87.0195064,   221.0, 2024,  2, 26, 15, 43, 43,        0,        0,   0,   0,   1.7,   0.9,   1.4,  0,  0,  0, 27,  0,  0, 35,  0, 36,  0,  0,  0,  0, 23,  0, 33,  0, 29,  0, 26, 29,  0,  0,  0,  0, 22, 26,  0,  0, 30,  0,  0
6, 8183, 4,KN4UIR,     0.25, 3,   boost,  349.02,  97865.00,  292.08,   65.29,   88.65, 35.6, 4.20, 4.19, 4.01,-156.88,   0.84,  -2.29,  55.82,  15.86, -12.32,   7.64,  -0.30,   2.44,   3.57, 4.16, 0.00, 0.00, 0.00, 0.00, 1, 1,  9,  40.5123536, -87.0195064,   221.0, 2024,  2, 26, 15, 43, 43,        0,        0,   0,   0,   1.7,   0.9,   1.4,  0,  0,  0, 27,  0,  0, 35,  0, 36,  0,  0,  0,  0, 23,  0, 33,  0, 29,  0, 26, 29,  0,  0,  0,  0, 22, 26,  0,  0, 30,  0,  0
6, 8183, 4,KN4UIR,     0.26, 3,   boost,  348.51,  97801.00,  297.56,   70.77,   92.13, 35.6, 4.20, 4.19, 4.01,-156.88,   0.84,  -2.29,  55.82,  15.86, -12.32,   7.64,  -0.31,   2.44,   3.38, 4.16, 0.00, 0.00, 0.00, 0.00, 1, 1,  9,  40.5123536, -87.0195064,   221.0, 2024,  2, 26, 15, 43, 43,        0,        0,   0,   0,   1.7,   0.9,   1.4,  0,  0,  0, 27,  0,  0, 35,  0, 36,  0,  0,  0,  0, 23,  0, 33,  0, 29,  0, 26, 29,  0,  0,  0,  0, 22, 26,  0,  0, 30,  0,  0
6, 8183, 4,KN4UIR,     0.27, 3,   boost,  350.52,  97720.00,  304.51,   77.71,   95.61, 35.7, 4.20, 4.19, 4.01,-156.88,   0.16,  -1.77,  54.41,  17.93, -14.64,   7.64,  -0.30,   2.44,   3.15, 4.16, 0.00, 0.00, 0.00, 0.00, 1, 1,  9,  40.5123536, -87.0195064,   221.0, 2024,  2, 26, 15, 43, 43,        0,        0,   0,   0,   1.7,   0.9,   1.4,  0,  0,  0, 27,  0,  0, 35,  0, 36,  0,  0,  0,  0, 23,  0, 33,  0, 29,  0, 26, 29,  0,  0,  0,  0, 22, 26,  0,  0, 30,  0,  0
6, 8183, 4,KN4UIR,     0.28, 3,   boost,  347.51,  97698.00,  306.39,   79.60,   99.09, 35.6, 4.20, 4.19, 4.01,-156.88,   1.06,  -1.80,  52.70,  19.83, -16.16,   7.64,  -0.30,   2.44,   2.91, 4.16, 0.00, 0.00, 0.00, 0.00, 1, 1,  9,  40.5123536, -87.0195064,   221.0, 2024,  2, 26, 15, 43, 43,        0,        0,   0,   0,   1.7,   0.9,   1.4,  0,  0,  0, 27,  0,  0, 35,  0, 36,  0,  0,  0,  0, 23,  0, 33,  0, 29,  0, 26, 29,  0,  0,  0,  0, 22, 26,  0,  0, 30,  0,  0
6, 8183, 4,KN4UIR,     0.29, 3,   boost,  347.00,  97622.00,  312.91,   86.12,  102.56, 35.6, 4.20, 4.19, 4.01,-156.88,   1.75,  -1.40,  50.93,  21.47, -18.30,   7.64,  -0.30,   2.44,   2.63, 4.16, 0.00, 0.00, 0.00, 0.00, 1, 1,  9,  40.5123536, -87.0195064,   221.0, 2024,  2, 26, 15, 43, 43,        0,        0,   0,   0,   1.7,   0.9,   1.4,  0,  0,  0, 27,  0,  0, 35,  0, 36,  0,  0,  0,  0, 23,  0, 33,  0, 29,  0, 26, 29,  0,  0,  0,  0, 22, 26,  0,  0, 30,  0,  0
6, 8183, 4,KN4UIR,     0.30, 3,   boost,  347.51,  97547.00,  319.35,   92.55,  106.03, 35.6, 4.20, 4.19, 4.01,-156.88,   2.23,  -1.41,  49.29,  22.39, -20.68,   7.64,  -0.31,   2.45,   2.33, 4.16, 0.00, 0.00, 0.00, 0.00, 1, 1,  9,  40.5123536, -87.0195064,   221.0, 2024,  2, 26, 15, 43, 43,        0,        0,   0,   0,   1.7,   0.9,   1.4,  0,  0,  0, 27,  0,  0, 35,  0, 36,  0,  0,  0,  0, 23,  0, 33,  0, 29,  0, 26, 29,  0,  0,  0,  0, 22, 26,  0,  0, 30,  0,  0
6, 8183, 4,KN4UIR,     0.31, 3,   boost,  346.00,  97461.00,  326.73,   99.94,  109.50, 35.6, 4.20, 4.19, 4.01,-156.88,   1.68,  -1.01,  47.52,  23.37, -21.60,   7.64,  -0.31,   2.44,   2.02, 4.16, 0.00, 0.00, 0.00, 0.00, 1, 1,  9,  40.5123536, -87.0195064,   221.0, 2024,  2, 26, 15, 43, 43,        0,        0,   0,   0,   1.7,   0.9,   1.4,  0,  0,  0, 27,  0,  0, 35,  0, 36,  0,  0,  0,  0, 23,  0, 33,  0, 29,  0, 26, 29,  0,  0,  0,  0, 22, 26,  0,  0, 30,  0,  0
6, 8183, 4,KN4UIR,     0.32, 3,   boost,  346.50,  97397.00,  332.23,  105.44,  112.96, 35.6, 4.20, 4.19, 4.01,-156.88,   2.05,  -0.72,  44.83,  23.85, -22.21,   7.64,  -0.31,   2.44,   1.71, 4.16, 0.00, 0.00, 0.00, 0.00, 1, 1,  9,  40.5123536, -87.0195064,   221.0, 2024,  2, 26, 15, 43, 43,        0,        0,   0,   0,   1.7,   0.9,   1.4,  0,  0,  0, 27,  0,  0, 35,  0, 36,  0,  0,  0,  0, 23,  0, 33,  0, 29,  0, 26, 29,  0,  0,  0,  0, 22, 26,  0,  0, 30,  0,  0
6, 8183, 4,KN4UIR,     0.33, 3,   boost,  346.00,  97284.00,  341.95,  115.15,  116.41, 35.6, 4.20, 4.19, 4.01,-156.88,   2.21,  -0.50,  42.45,  24.34, -22.51,   7.64,  -0.31,   2.44,   1.39, 4.16, 0.00, 0.00, 0.00, 0.00, 1, 1,  9,  40.5123536, -87.0195064,   221.0, 2024,  2, 26, 15, 43, 43,        0,        0,   0,   0,   1.7,   0.9,   1.4,  0,  0,  0, 27,  0,  0, 35,  0, 36,  0,  0,  0,  0, 23,  0, 33,  0, 29,  0, 26, 29,  0,  0,  0,  0, 22, 26,  0,  0, 30,  0,  0
6, 8183, 4,KN4UIR,     0.34, 3,   boost,  344.49,  97225.00,  347.02,  120.23,  119.86, 35.6, 4.20, 4.20, 3.99,-156.88,   2.79,   0.17,  39.52,  24.53, -22.69,   7.64,  -0.31,   2.44,   1.08, 4.15, 0.00, 0.00, 0.00, 0.00, 1, 1,  9,  40.5123536, -87.0195064,   221.0, 2024,  2, 26, 15, 43, 43,        0,        0,   0,   0,   1.7,   0.9,   1.4,  0,  0,  0, 27,  0,  0, 35,  0, 36,  0,  0,  0,  0, 23,  0, 33,  0, 29,  0, 26, 29,  0,  0,  0,  0, 22, 26,  0,  0, 30,  0,  0
6, 8183, 4,KN4UIR,     0.34, 3,   boost,  344.49,  97225.00,  347.02,  120.23,  119.86, 35.6, 4.20, 4.20, 3.99,-156.88,   2.79,   0.17,  39.52,  24.53, -22.69,   7.64,  -0.31,   2.44,   1.08, 4.15, 0.00, 0.00, 0.00, 0.00, 1, 1,  9,  40.5123536, -87.0195064,   221.0, 2024,  2, 26, 15, 43, 43,        0,        0,   0,   0,   1.7,   0.9,   1.4,  0,  0,  0, 27,  0,  0, 35,  0, 36,  0,  0,  0,  0, 23,  0, 33,  0, 29,  0, 26, 29,  0,  0,  0,  0, 22, 26,  0,  0, 30,  0,  0
6, 8183, 4,KN4UIR,     0.35, 3,   boost,  343.48,  97144.00,  354.00,  127.21,  123.29, 35.6, 4.20, 4.20, 3.99,-156.88,   3.38,   0.28,  36.59,  24.34, -22.51,   7.64,  -0.31,   2.44,   0.79, 4.15, 0.00, 0.00, 0.00, 0.00, 1, 1,  9,  40.5123536, -87.0195064,   221.0, 2024,  2, 26, 15, 43, 43,        0,        0,   0,   0,   1.7,   0.9,   1.4,  0,  0,  0, 27,  0,  0, 35,  0, 36,  0,  0,  0,  0, 23,  0, 33,  0, 29,  0, 26, 29,  0,  0,  0,  0, 22, 26,  0,  0, 30,  0,  0
6, 8183, 4,KN4UIR,     0.36, 3,   boost,  340.47,  97017.00,  364.94,  138.15,  126.70, 35.6, 4.20, 4.20, 3.99,-156.88,   3.51,   1.16,  30.00,  22.33, -19.52,   7.64,  -0.31,   2.44,   0.57, 4.15, 0.00, 0.00, 0.00, 0.00, 1, 1,  9,  40.5123536, -87.0195064,   221.0, 2024,  2, 26, 15, 43, 43,        0,        0,   0,   0,   1.7,   0.9,   1.4,  0,  0,  0, 27,  0,  0, 35,  0, 36,  0,  0,  0,  0, 23,  0, 33,  0, 29,  0, 26, 29,  0,  0,  0,  0, 22, 26,  0,  0, 30,  0,  0
6, 8183, 4,KN4UIR,     0.37, 3,   boost,  337.95,  96946.00,  371.07,  144.27,  130.09, 35.6, 4.20, 4.20, 3.99,-156.88,   3.51,   1.16,  30.00,  22.33, -19.52,   7.64,  -0.30,   2.43,   0.46, 4.15, 0.00, 0.00, 0.00, 0.00, 1, 1,  9,  40.5123536, -87.0195064,   221.0, 2024,  2, 26, 15, 43, 43,        0,        0,   0,   0,   1.7,   0.9,   1.4,  0,  0,  0, 27,  0,  0, 35,  0, 36,  0,  0,  0,  0, 23,  0, 33,  0, 29,  0, 26, 29,  0,  0,  0,  0, 22, 26,  0,  0, 30,  0,  0
6, 8183, 4,KN4UIR,     0.38, 3,   boost,  336.95,  96868.00,  377.80,  151.01,  133.46, 35.6, 4.20, 4.20, 3.99,-156.88,   3.73,   1.40,  27.01,  20.80, -17.26,   7.64,  -0.30,   2.43,   0.51, 4.15, 0.00, 0.00, 0.00, 0.00, 1, 1,  9,  40.5123536, -87.0195064,   221.0, 2024,  2, 26, 15, 43, 43,        0,        0,   0,   0,   1.7,   0.9,   1.4,  0,  0,  0, 27,  0,  0, 35,  0, 36,  0,  0,  0,  0, 23,  0, 33,  0, 29,  0, 26, 29,  0,  0,  0,  0, 22, 26,  0,  0, 30,  0,  0
6, 8183, 4,KN4UIR,     0.38, 3,   boost,  336.95,  96868.00,  377.80,  151.01,  133.46, 35.6, 4.20, 4.20, 3.99,-156.88,   3.73,   1.40,  27.01,  20.80, -17.26,   7.64,  -0.30,   2.43,   0.51, 4.15, 0.00, 0.00, 0.00, 0.00, 1, 1,  9,  40.5123536, -87.0195064,   221.0, 2024,  2, 26, 15, 43, 43,        0,        0,   0,   0,   1.7,   0.9,   1.4,  0,  0,  0, 27,  0,  0, 35,  0, 36,  0,  0,  0,  0, 23,  0, 33,  0, 29,  0, 26, 29,  0,  0,  0,  0, 22, 26,  0,  0, 30,  0,  0
6, 8183, 4,KN4UIR,     0.38, 3,   boost,  336.95,  96868.00,  377.80,  151.01,  133.46, 35.6, 4.20, 4.20, 3.99,-156.88,   3.73,   1.40,  27.01,  20.80, -17.26,   7.64,  -0.30,   2.43,   0.51, 4.15, 0.00, 0.00, 0.00, 0.00, 1, 1,  9,  40.5123536, -87.0195064,   221.0, 2024,  2, 26, 15, 43, 43,        0,        0,   0,   0,   1.7,   0.9,   1.4,  0,  0,  0, 27,  0,  0, 35,  0, 36,  0,  0,  0,  0, 23,  0, 33,  0, 29,  0, 26, 29,  0,  0,  0,  0, 22, 26,  0,  0, 30,  0,  0
6, 8183, 4,KN4UIR,     0.39, 3,   boost,  334.43,  96779.00,  385.48,  158.69,  136.79, 35.6, 4.20, 4.20, 3.99,-156.88,   4.20,   1.54,  24.50,  18.24, -15.43,   7.64,  -0.30,   2.43,   0.65, 4.15, 0.00, 0.00, 0.00, 0.00, 1, 1,  9,  40.5123811, -87.0195087,   224.0, 2024,  2, 26, 15, 43, 44,        3,        4, 356,  44,   1.7,   0.9,   1.4,  0,  0,  0, 26,  0,  0, 26,  0, 19,  0,  0,  0,  0, 36,  0, 21,  0, 29,  0, 32, 29,  0,  0,  0,  0, 23, 26,  0,  0, 23,  0,  0
6, 8183, 4,KN4UIR,     0.40, 3,   boost,  326.89,  96697.00,  392.57,  165.78,  140.09, 35.6, 4.20, 4.20, 3.99,-156.88,   4.56,   1.36,  22.25,  15.49, -13.11,   7.64,  -0.30,   2.43,   0.80, 4.15, 0.00, 0.00, 0.00, 0.00, 1, 1,  9,  40.5123811, -87.0195087,   224.0, 2024,  2, 26, 15, 43, 44,        3,        4, 356,  44,   1.7,   0.9,   1.4,  0,  0,  0, 26,  0,  0, 26,  0, 19,  0,  0,  0,  0, 36,  0, 21,  0, 29,  0, 32, 29,  0,  0,  0,  0, 23, 26,  0,  0, 23,  0,  0
6, 8183, 4,KN4UIR,     0.41, 3,   boost,  323.37,  96610.00,  400.10,  173.30,  143.35, 35.6, 4.20, 4.20, 3.99,-156.88,   4.61,   1.52,  21.15,  12.32, -10.55,   7.64,  -0.30,   2.43,   0.94, 4.15, 0.00, 0.00, 0.00, 0.00, 1, 1,  9,  40.5123811, -87.0195087,   224.0, 2024,  2, 26, 15, 43, 44,        3,        4, 356,  44,   1.7,   0.9,   1.4,  0,  0,  0, 26,  0,  0, 26,  0, 19,  0,  0,  0,  0, 36,  0, 21,  0, 29,  0, 32, 29,  0,  0,  0,  0, 23, 26,  0,  0, 23,  0,  0
6, 8183, 4,KN4UIR,     0.42, 3,   boost,  319.85,  96503.00,  409.36,  182.56,  146.56, 35.6, 4.20, 4.20, 3.99,-156.88,   4.27,   1.82,  19.26,   9.08,  -7.25,   7.64,  -0.30,   2.43,   1.05, 4.15, 0.00, 0.00, 0.00, 0.00, 1, 1,  9,  40.5123811, -87.0195087,   224.0, 2024,  2, 26, 15, 43, 44,        3,        4, 356,  44,   1.7,   0.9,   1.4,  0,  0,  0, 26,  0,  0, 26,  0, 19,  0,  0,  0,  0, 36,  0, 21,  0, 29,  0, 32, 29,  0,  0,  0,  0, 23, 26,  0,  0, 23,  0,  0
6, 8183, 4,KN4UIR,     0.43, 3,   boost,  314.82,  96436.00,  415.16,  188.37,  149.73, 35.6, 4.20, 4.20, 3.99,-156.88,   4.29,   2.00,  18.40,   5.54,  -3.71,   7.64,  -0.30,   2.43,   1.11, 4.15, 0.00, 0.00, 0.00, 0.00, 1, 1,  9,  40.5123811, -87.0195087,   224.0, 2024,  2, 26, 15, 43, 44,        3,        4, 356,  44,   1.7,   0.9,   1.4,  0,  0,  0, 26,  0,  0, 26,  0, 19,  0,  0,  0,  0, 36,  0, 21,  0, 29,  0, 32, 29,  0,  0,  0,  0, 23, 26,  0,  0, 23,  0,  0
6, 8183, 4,KN4UIR,     0.44, 3,   boost,  309.29,  96319.00,  425.30,  198.51,  152.84, 35.6, 4.20, 4.20, 3.99,-156.88,   4.40,   2.02,  18.46,   2.12,  -1.27,   7.64,  -0.30,   2.43,   1.13, 4.15, 0.00, 0.00, 0.00, 0.00, 1, 1,  9,  40.5123811, -87.0195087,   224.0, 2024,  2, 26, 15, 43, 44,        3,        4, 356,  44,   1.7,   0.9,   1.4,  0,  0,  0, 26,  0,  0, 26,  0, 19,  0,  0,  0,  0, 36,  0, 21,  0, 29,  0, 32, 29,  0,  0,  0,  0, 23, 26,  0,  0, 23,  0,  0
6, 8183, 4,KN4UIR,     0.45, 3,   boost,  304.26,  96218.00,  434.07,  207.27,  155.92, 35.6, 4.20, 4.20, 3.99,-156.88,   4.15,   1.86,  18.71,  -1.17,   1.54,   7.64,  -0.30,   2.42,   1.12, 4.15, 0.00, 0.00, 0.00, 0.00, 1, 1,  9,  40.5123811, -87.0195087,   224.0, 2024,  2, 26, 15, 43, 44,        3,        4, 356,  44,   1.7,   0.9,   1.4,  0,  0,  0, 26,  0,  0, 26,  0, 19,  0,  0,  0,  0, 36,  0, 21,  0, 29,  0, 32, 29,  0,  0,  0,  0, 23, 26,  0,  0, 23,  0,  0
6, 8183, 4,KN4UIR,     0.46, 3,   boost,  297.22,  96135.00,  441.27,  214.48,  158.94, 35.6, 4.20, 4.20, 3.99,-156.88,   4.07,   1.62,  18.16,  -4.22,   4.77,   7.64,  -0.30,   2.42,   1.07, 4.15, 0.00, 0.00, 0.00, 0.00, 1, 1,  9,  40.5123811, -87.0195087,   224.0, 2024,  2, 26, 15, 43, 44,        3,        4, 356,  44,   1.7,   0.9,   1.4,  0,  0,  0, 26,  0,  0, 26,  0, 19,  0,  0,  0,  0, 36,  0, 21,  0, 29,  0, 32, 29,  0,  0,  0,  0, 23, 26,  0,  0, 23,  0,  0
6, 8183, 4,KN4UIR,     0.47, 3,   boost,  296.21,  96048.00,  448.83,  222.04,  161.86, 35.6, 4.20, 4.20, 3.99,-156.88,   4.00,   1.26,  15.84,  -9.17,   9.17,   7.64,  -0.30,   2.42,   0.96, 4.15, 0.00, 0.00, 0.00, 0.00, 1, 1,  9,  40.5123811, -87.0195087,   224.0, 2024,  2, 26, 15, 43, 44,        3,        4, 356,  44,   1.7,   0.9,   1.4,  0,  0,  0, 26,  0,  0, 26,  0, 19,  0,  0,  0,  0, 36,  0, 21,  0, 29,  0, 32, 29,  0,  0,  0,  0, 23, 26,  0,  0, 23,  0,  0
6, 8183, 4,KN4UIR,     0.48, 3,   boost,  300.23,  95963.00,  456.22,  229.43,  164.56, 35.6, 4.20, 4.20, 3.99,-156.88,   4.00,   1.26,  15.84,  -9.17,   9.17,   7.64,  -0.30,   2.43,   0.86, 4.15, 0.00, 0.00, 0.00, 0.00, 1, 1,  9,  40.5123811, -87.0195087,   224.0, 2024,  2, 26, 15, 43, 44,        3,        4, 356,  44,   1.7,   0.9,   1.4,  0,  0,  0, 26,  0,  0, 26,  0, 19,  0,  0,  0,  0, 36,  0, 21,  0, 29,  0, 32, 29,  0,  0,  0,  0, 23, 26,  0,  0, 23,  0,  0
6, 8183, 4,KN4UIR,     0.49, 3,   boost,  320.35,  95905.00,  461.27,  234.48,  166.86, 35.6, 4.20, 4.20, 3.99,-156.88,   4.26,   1.20,  14.56, -11.00,  11.24,   7.64,  -0.30,   2.43,   0.75, 4.15, 0.00, 0.00, 0.00, 0.00, 1, 1,  9,  40.5123811, -87.0195087,   224.0, 2024,  2, 26, 15, 43, 44,        3,        4, 356,  44,   1.7,   0.9,   1.4,  0,  0,  0, 26,  0,  0, 26,  0, 19,  0,  0,  0,  0, 36,  0, 21,  0, 29,  0, 32, 29,  0,  0,  0,  0, 23, 26,  0,  0, 23,  0,  0
6, 8183, 4,KN4UIR,     0.50, 3,   boost,  100.58,  95817.00,  468.93,  242.14,  168.64, 35.6, 4.20, 4.20, 3.99,-156.88,   3.86,   0.94,  13.82, -12.65,  13.07,   7.64,  -0.30,   2.43,   0.66, 4.15, 0.00, 0.00, 0.00, 0.00, 1, 1,  9,  40.5123811, -87.0195087,   224.0, 2024,  2, 26, 15, 43, 44,        3,        4, 356,  44,   1.7,   0.9,   1.4,  0,  0,  0, 26,  0,  0, 26,  0, 19,  0,  0,  0,  0, 36,  0, 21,  0, 29,  0, 32, 29,  0,  0,  0,  0, 23, 26,  0,  0, 23,  0,  0
6, 8183, 4,KN4UIR,     0.51, 3,   boost,   28.67,  95657.00,  482.88,  256.08,  169.82, 35.6, 4.20, 4.20, 3.99,-156.88,  -0.28,   8.19,  13.76, -14.23,  14.17,   7.64,  -0.30,   2.44,   0.60, 4.15, 0.00, 0.00, 0.00, 0.00, 1, 1,  9,  40.5123811, -87.0195087,   224.0, 2024,  2, 26, 15, 43, 44,        3,        4, 356,  44,   1.7,   0.9,   1.4,  0,  0,  0, 26,  0,  0, 26,  0, 19,  0,  0,  0,  0, 36,  0, 21,  0, 29,  0, 32, 29,  0,  0,  0,  0, 23, 26,  0,  0, 23,  0,  0
6, 8183, 4,KN4UIR,     0.52, 3,   boost,    4.02,  95700.00,  479.13,  252.34,  170.46, 35.6, 4.20, 4.20, 3.99,-152.31,   5.30,   6.73,  15.23, -15.82,  18.26,   7.64,  -0.31,   2.44,   0.63, 4.15, 0.00, 0.00, 0.00, 0.00, 1, 1,  9,  40.5123811, -87.0195087,   224.0, 2024,  2, 26, 15, 43, 44,        3,        4, 356,  44,   1.7,   0.9,   1.4,  0,  0,  0, 26,  0,  0, 26,  0, 19,  0,  0,  0,  0, 36,  0, 21,  0, 29,  0, 32, 29,  0,  0,  0,  0, 23, 26,  0,  0, 23,  0,  0
6, 8183, 4,KN4UIR,     0.53, 3,   boost,  -12.07,  95616.00,  486.45,  259.66,  170.70, 35.6, 4.20, 4.20, 3.99, -60.35,   2.52,  -2.31,  11.93, -17.65,  19.05,   7.64,  -0.30,   2.44,   0.75, 4.15, 0.00, 0.00, 0.00, 0.00, 1, 1,  9,  40.5123811, -87.0195087,   224.0, 2024,  2, 26, 15, 43, 44,        3,        4, 356,  44,   1.7,   0.9,   1.4,  0,  0,  0, 26,  0,  0, 26,  0, 19,  0,  0,  0,  0, 36,  0, 21,  0, 29,  0, 32, 29,  0,  0,  0,  0, 23, 26,  0,  0, 23,  0,  0
6, 8183, 4,KN4UIR,     0.54, 3,   boost,  -15.09,  95685.00,  480.44,  253.64,  170.70, 35.6, 4.20, 4.20, 3.99, -21.01,   2.69,  -0.30,  12.42, -15.88,  20.58,   7.64,  -0.30,   2.44,   0.94, 4.15, 0.00, 0.00, 0.00, 0.00, 1, 1,  9,  40.5123811, -87.0195087,   224.0, 2024,  2, 26, 15, 43, 44,        3,        4, 356,  44,   1.7,   0.9,   1.4,  0,  0,  0, 26,  0,  0, 26,  0, 19,  0,  0,  0,  0, 36,  0, 21,  0, 29,  0, 32, 29,  0,  0,  0,  0, 23, 26,  0,  0, 23,  0,  0
6, 8183, 4,KN4UIR,     0.55, 3,   boost,  -18.10,  95650.00,  483.49,  256.70,  170.59, 35.6, 4.20, 4.20, 3.99,  -5.09,   1.13,   1.39,  12.60, -14.90,  20.40,   7.64,  -0.30,   2.44,   1.16, 4.15, 0.00, 0.00, 0.00, 0.00, 1, 1,  9,  40.5123811, -87.0195087,   224.0, 2024,  2, 26, 15, 43, 44,        3,        4, 356,  44,   1.7,   0.9,   1.4,  0,  0,  0, 26,  0,  0, 26,  0, 19,  0,  0,  0,  0, 36,  0, 21,  0, 29,  0, 32, 29,  0,  0,  0,  0, 23, 26,  0,  0, 23,  0,  0
6, 8183, 4,KN4UIR,     0.56, 3,   boost,  -16.60,  95605.00,  487.41,  260.62,  170.43, 35.6, 4.20, 4.20, 3.99,   4.14,  -0.14,   0.74,  12.91, -14.48,  21.86,   7.64,  -0.30,   2.44,   1.40, 4.15, 0.00, 0.00, 0.00, 0.00, 1, 1,  9,  40.5123811, -87.0195087,   224.0, 2024,  2, 26, 15, 43, 44,        3,        4, 356,  44,   1.7,   0.9,   1.4,  0,  0,  0, 26,  0,  0, 26,  0, 19,  0,  0,  0,  0, 36,  0, 21,  0, 29,  0, 32, 29,  0,  0,  0,  0, 23, 26,  0,  0, 23,  0,  0
