#version,serial,flight,call,time,rssi,lqi,state,state_name,acceleration,pressure,altitude,height,speed,temperature,drogue_voltage,main_voltage,battery_voltage,accel_x,accel_y,accel_z,gyro_roll,gyro_pitch,gyro_yaw,mag_x,mag_y,mag_z,tilt,pyro,igniter_a,igniter_b,igniter_c,igniter_d,connected,locked,nsat,latitude,longitude,altitude,year,month,day,hour,minute,second,pad_dist,pad_range,pad_az,pad_el,pdop,hdop,vdop,sat01,sat02,sat03,sat04,sat05,sat06,sat07,sat08,sat09,sat10,sat11,sat12,sat13,sat14,sat15,sat16,sat17,sat18,sat19,sat20,sat21,sat22,sat23,sat24,sat25,sat26,sat27,sat28,sat29,sat30,sat31,sat32
6, 8183, 1,KN4UIR,    -1.93, -79,   5, 3,   boost,   -1.51,  98660.00,  224.24,    0.51,    0.00, 34.9, 9.62, 9.56, 3.74,   9.83,   0.12,  -0.03,   0.43,   0.79,   0.24,   8.00,   0.03,  -0.03,   1.00, 9.50, 0.00, 0.00, 0.00, 0.00, 1, 1, 11,  40.3885484, -87.5133518,   209.0, 2023,  4, 15, 18, 34, 44,        0,        1, 240, -64,   1.4,   0.8,   1.2, 31,  0, 33,  0,  0, 41,  0,  0,  0,  0, 39,  0,  0, 34,  0,  0, 26,  0, 29,  0, 27,  0,  0, 35,  0,  0,  0,  0,  0, 32,  0,  0
6, 8183, 1,KN4UIR,    -1.90, -80,   7, 3,   boost,   -1.51,  98660.00,  224.24,    0.51,    0.00, 34.9, 9.62, 9.56, 3.74,   9.83,   0.12,  -0.03,   0.43,   0.79,   0.24,   8.00,   0.03,  -0.03,   1.00, 9.50, 0.00, 0.00, 0.00, 0.00, 1, 1, 11,  40.3885484, -87.5133518,   209.0, 2023,  4, 15, 18, 34, 44,        0,        1, 240, -64,   1.4,   0.8,   1.2, 31,  0, 33,  0,  0, 41,  0,  0,  0,  0, 39,  0,  0, 34,  0,  0, 26,  0, 29,  0, 27,  0,  0, 35,  0,  0,  0,  0,  0, 32,  0,  0
6, 8183, 1,KN4UIR,    -1.02, -66,   7, 3,   boost,   -1.51,  98660.00,  224.24,    0.51,    0.00, 34.9, 9.62, 9.56, 3.74,   9.83,   0.12,  -0.03,   0.43,   0.79,   0.24,   8.00,   0.03,  -0.03,   1.00, 9.50, 0.00, 0.00, 0.00, 0.00, 1, 1, 10,  40.3885483, -87.5133512,   209.0, 2023,  4, 15, 18, 34, 45,        0,        1, 236, -65,   1.5,   0.8,   1.3, 31,  0, 33,  0,  0, 41,  0,  0,  0,  0, 39,  0,  0, 33,  0,  0, 26,  0, 29,  0, 28,  0,  0, 35,  0,  0,  0,  0,  0, 32,  0,  0
6, 8183, 1,KN4UIR,    -0.92, -80,   6, 3,   boost,   -1.51,  98659.00,  224.33,    0.60,    0.00, 34.9, 9.62, 9.56, 3.74,   9.85,   0.10,   0.05,  -0.61,   0.31,   0.18,   8.00,   0.03,  -0.03,   1.00, 9.50, 0.00, 0.00, 0.00, 0.00, 1, 1, 10,  40.3885483, -87.5133512,   209.0, 2023,  4, 15, 18, 34, 45,        0,        1, 236, -65,   1.5,   0.8,   1.3, 31,  0, 33,  0,  0, 41,  0,  0,  0,  0, 39,  0,  0, 33,  0,  0, 26,  0, 29,  0, 28,  0,  0, 35,  0,  0,  0,  0,  0, 32,  0,  0
6, 8183, 1,KN4UIR,    -0.89, -80,   8, 3,   boost,   -1.51,  98659.00,  224.33,    0.60,    0.00, 34.9, 9.62, 9.62, 3.73,   9.85,   0.10,   0.05,  -0.61,   0.31,   0.18,   8.00,   0.03,  -0.03,   1.00, 9.51, 0.00, 0.00, 0.00, 0.00, 1, 1, 10,  40.3885483, -87.5133512,   209.0, 2023,  4, 15, 18, 34, 45,        0,        1, 236, -65,   1.5,   0.8,   1.3, 31,  0, 33,  0,  0, 41,  0,  0,  0,  0, 39,  0,  0, 33,  0,  0, 26,  0, 29,  0, 28,  0,  0, 35,  0,  0,  0,  0,  0, 32,  0,  0
6, 8183, 1,KN4UIR,    -0.03, -78,  12, 3,   boost,   57.83,  98609.00,  228.58,    4.85,   23.53, 34.9, 9.62, 9.62, 3.73,  65.69,  14.71,  -3.73, 189.58,  -1.77,  -6.41,   8.00,   0.03,  -0.04,   1.00, 9.51, 0.00, 0.00, 0.00, 0.00, 1, 1, 10,  40.3885483, -87.5133512,   209.0, 2023,  4, 15, 18, 34, 45,        0,        1, 236, -65,   1.5,   0.8,   1.3, 31,  0, 33,  0,  0, 41,  0,  0,  0,  0, 39,  0,  0, 33,  0,  0, 26,  0, 29,  0, 28,  0,  0, 35,  0,  0,  0,  0,  0, 32,  0,  0
6, 8183, 1,KN4UIR,    -0.02, -69,  10, 3,   boost,   57.83,  98609.00,  228.58,    4.85,   23.53, 34.9, 9.62, 9.62, 3.73,  65.69,  14.71,  -3.73, 189.58,  -1.77,  -6.41,   8.00,   0.03,  -0.04,   1.00, 9.51, 0.00, 0.00, 0.00, 0.00, 1, 1, 11,  40.3885506, -87.5133467,   210.0, 2023,  4, 15, 18, 34, 46,        0,        0,   0,   0,   1.4,   0.8,   1.2, 31,  0, 33,  0,  0, 41,  0,  0,  0,  0, 39,  0,  0, 33,  0,  0, 26,  0, 29,  0, 28,  0,  0, 35,  0,  0,  0,  0,  0, 32,  0,  0
6, 8183, 1,KN4UIR,     0.00, -78,   7, 3,   boost,   57.83,  98609.00,  228.58,    4.85,   23.53, 34.9, 9.62, 9.62, 3.73,  65.69,  14.71,  -3.73, 189.58,  -1.77,  -6.41,   8.00,   0.03,  -0.04,   1.00, 9.51, 0.00, 0.00, 0.00, 0.00, 1, 1, 11,  40.3885506, -87.5133467,   210.0, 2023,  4, 15, 18, 34, 46,        0,        0,   0,   0,   1.4,   0.8,   1.2, 31,  0, 33,  0,  0, 41,  0,  0,  0,  0, 39,  0,  0, 33,  0,  0, 26,  0, 29,  0, 28,  0,  0, 35,  0,  0,  0,  0,  0, 32,  0,  0
6, 8183, 1,KN4UIR,     0.07, -73,   9, 3,   boost,   61.35,  98603.00,  229.09,    5.36,   29.49, 34.9, 9.62, 9.62, 3.73,  66.09,   6.44,   8.54,  -3.30,  -9.40,  19.65,   8.00,   0.03,  -0.06,   1.00, 9.51, 0.00, 0.00, 0.00, 0.00, 1, 1, 11,  40.3885506, -87.5133467,   210.0, 2023,  4, 15, 18, 34, 46,        0,        0,   0,   0,   1.4,   0.8,   1.2, 31,  0, 33,  0,  0, 41,  0,  0,  0,  0, 39,  0,  0, 33,  0,  0, 26,  0, 29,  0, 28,  0,  0, 35,  0,  0,  0,  0,  0, 32,  0,  0
6, 8183, 1,KN4UIR,     0.10, -71,   6, 3,   boost,   61.35,  98603.00,  229.09,    5.36,   29.49, 34.9, 9.62, 9.62, 3.73,  66.09,   6.44,   8.54,  -3.30,  -9.40,  19.65,   8.00,   0.03,  -0.06,   1.00, 9.50, 0.00, 0.00, 0.00, 0.00, 1, 1, 11,  40.3885506, -87.5133467,   210.0, 2023,  4, 15, 18, 34, 46,        0,        0,   0,   0,   1.4,   0.8,   1.2, 31,  0, 33,  0,  0, 41,  0,  0,  0,  0, 39,  0,  0, 33,  0,  0, 26,  0, 29,  0, 28,  0,  0, 35,  0,  0,  0,  0,  0, 32,  0,  0
6, 8183, 1,KN4UIR,     0.18, -68,   6, 3,   boost,   61.86,  98596.00,  229.69,    5.96,   36.26, 34.9, 9.62, 9.62, 3.73,  68.67,  -3.75,  -0.65,-234.32,  12.51,  -7.45,   8.00,   0.04,   0.06,   3.00, 9.50, 0.00, 0.00, 0.00, 0.00, 1, 1, 11,  40.3885506, -87.5133467,   210.0, 2023,  4, 15, 18, 34, 46,        0,        0,   0,   0,   1.4,   0.8,   1.2, 31,  0, 33,  0,  0, 41,  0,  0,  0,  0, 39,  0,  0, 33,  0,  0, 26,  0, 29,  0, 28,  0,  0, 35,  0,  0,  0,  0,  0, 32,  0,  0
6, 8183, 1,KN4UIR,     0.21, -67,   7, 3,   boost,   61.86,  98596.00,  229.69,    5.96,   36.26, 34.9, 9.62, 9.56, 3.71,  68.67,  -3.75,  -0.65,-234.32,  12.51,  -7.45,   8.00,   0.04,   0.06,   3.00, 9.50, 0.00, 0.00, 0.00, 0.00, 1, 1, 11,  40.3885506, -87.5133467,   210.0, 2023,  4, 15, 18, 34, 46,        0,        0,   0,   0,   1.4,   0.8,   1.2, 31,  0, 33,  0,  0, 41,  0,  0,  0,  0, 39,  0,  0, 33,  0,  0, 26,  0, 29,  0, 28,  0,  0, 35,  0,  0,  0,  0,  0, 32,  0,  0
6, 8183, 1,KN4UIR,     0.29, -64,   6, 3,   boost,   62.36,  98502.00,  237.69,   13.96,   43.08, 34.9, 9.62, 9.56, 3.71,  71.49,  -1.61,  -1.29,-150.88,   6.41,   6.10,   8.00,   0.03,   0.04,   3.00, 9.50, 0.00, 0.00, 0.00, 0.00, 1, 1, 11,  40.3885506, -87.5133467,   210.0, 2023,  4, 15, 18, 34, 46,        0,        0,   0,   0,   1.4,   0.8,   1.2, 31,  0, 33,  0,  0, 41,  0,  0,  0,  0, 39,  0,  0, 33,  0,  0, 26,  0, 29,  0, 28,  0,  0, 35,  0,  0,  0,  0,  0, 32,  0,  0
6, 8183, 1,KN4UIR,     0.32, -63,   6, 3,   boost,   62.36,  98502.00,  237.69,   13.96,   43.08, 34.9, 9.62, 9.62, 3.74,  71.49,  -1.61,  -1.29,-150.88,   6.41,   6.10,   8.00,   0.03,   0.04,   3.00, 9.51, 0.00, 0.00, 0.00, 0.00, 1, 1, 11,  40.3885506, -87.5133467,   210.0, 2023,  4, 15, 18, 34, 46,        0,        0,   0,   0,   1.4,   0.8,   1.2, 31,  0, 33,  0,  0, 41,  0,  0,  0,  0, 39,  0,  0, 34,  0,  0, 27,  0, 29,  0, 28,  0,  0, 35,  0,  0,  0,  0,  0, 32,  0,  0
6, 8183, 1,KN4UIR,     0.32, -63,   6, 3,   boost,   62.36,  98502.00,  237.69,   13.96,   43.08, 34.9, 9.62, 9.62, 3.74,  71.49,  -1.61,  -1.29,-150.88,   6.41,   6.10,   8.00,   0.03,   0.04,   3.00, 9.51, 0.00, 0.00, 0.00, 0.00, 1, 1, 11,  40.3885506, -87.5133467,   210.0, 2023,  4, 15, 18, 34, 46,        0,        0,   0,   0,   1.4,   0.8,   1.2, 31,  0, 33,  0,  0, 41,  0,  0,  0,  0, 39,  0,  0, 34,  0,  0, 27,  0, 29,  0, 28,  0,  0, 35,  0,  0,  0,  0,  0, 32,  0,  0
6, 8183, 1,KN4UIR,     0.40, -62,   6, 3,   boost,   64.87,  98458.00,  241.44,   17.71,   50.06, 34.9, 9.62, 9.62, 3.74,  73.19,  -0.09,   0.42,-116.34,  13.43,   9.09,   8.00,   0.04,   0.15,   5.00, 9.51, 0.00, 0.00, 0.00, 0.00, 1, 1, 11,  40.3885506, -87.5133467,   210.0, 2023,  4, 15, 18, 34, 46,        0,        0,   0,   0,   1.4,   0.8,   1.2, 31,  0, 33,  0,  0, 41,  0,  0,  0,  0, 39,  0,  0, 34,  0,  0, 27,  0, 29,  0, 28,  0,  0, 35,  0,  0,  0,  0,  0, 32,  0,  0
6, 8183, 1,KN4UIR,     0.43, -61,   7, 3,   boost,   64.87,  98458.00,  241.44,   17.71,   50.06, 34.9, 9.62, 9.56, 3.70,  73.19,  -0.09,   0.42,-116.34,  13.43,   9.09,   8.00,   0.04,   0.15,   5.00, 9.50, 0.00, 0.00, 0.00, 0.00, 1, 1, 11,  40.3885506, -87.5133467,   210.0, 2023,  4, 15, 18, 34, 46,        0,        0,   0,   0,   1.4,   0.8,   1.2, 31,  0, 33,  0,  0, 41,  0,  0,  0,  0, 39,  0,  0, 34,  0,  0, 27,  0, 29,  0, 28,  0,  0, 35,  0,  0,  0,  0,  0, 32,  0,  0
6, 8183, 1,KN4UIR,     0.43, -61,  11, 3,   boost,   64.87,  98458.00,  241.44,   17.71,   50.06, 34.9, 9.62, 9.56, 3.70,  73.19,  -0.09,   0.42,-116.34,  13.43,   9.09,   8.00,   0.04,   0.15,   5.00, 9.50, 0.00, 0.00, 0.00, 0.00, 1, 1, 11,  40.3885506, -87.5133467,   210.0, 2023,  4, 15, 18, 34, 46,        0,        0,   0,   0,   1.4,   0.8,   1.2, 31,  0, 33,  0,  0, 41,  0,  0,  0,  0, 39,  0,  0, 34,  0,  0, 27,  0, 29,  0, 28,  0,  0, 35,  0,  0,  0,  0,  0, 32,  0,  0
6, 8183, 1,KN4UIR,     0.51, -61,   9, 3,   boost,   66.38,  98386.00,  247.57,   23.84,   57.24, 34.9, 9.62, 9.56, 3.70,  74.45,  -0.22,  -0.25, -77.39,  14.10,  13.06,   8.00,   0.04,   0.18,   6.00, 9.50, 0.00, 0.00, 0.00, 0.00, 1, 1, 11,  40.3885506, -87.5133467,   210.0, 2023,  4, 15, 18, 34, 46,        0,        0,   0,   0,   1.4,   0.8,   1.2, 31,  0, 33,  0,  0, 41,  0,  0,  0,  0, 39,  0,  0, 34,  0,  0, 27,  0, 29,  0, 28,  0,  0, 35,  0,  0,  0,  0,  0, 32,  0,  0
6, 8183, 1,KN4UIR,     0.54, -60,   8, 3,   boost,   66.38,  98386.00,  247.57,   23.84,   57.24, 34.9, 9.62, 9.62, 3.74,  74.45,  -0.22,  -0.25, -77.39,  14.10,  13.06,   8.00,   0.04,   0.18,   6.00, 9.51, 0.00, 0.00, 0.00, 0.00, 1, 1, 11,  40.3885506, -87.5133467,   210.0, 2023,  4, 15, 18, 34, 46,        0,        0,   0,   0,   1.4,   0.8,   1.2, 31,  0, 33,  0,  0, 41,  0,  0,  0,  0, 39,  0,  0, 34,  0,  0, 27,  0, 29,  0, 28,  0,  0, 35,  0,  0,  0,  0,  0, 32,  0,  0
6, 8183, 1,KN4UIR,     0.62, -60,   7, 3,   boost,   69.40,  98304.00,  254.57,   30.84,   64.64, 34.9, 9.62, 9.62, 3.74,  77.00,  -0.04,   0.50, -35.28,  14.59,  16.97,   8.00,   0.03,   0.13,   8.00, 9.51, 0.00, 0.00, 0.00, 0.00, 1, 1, 11,  40.3885506, -87.5133467,   210.0, 2023,  4, 15, 18, 34, 46,        0,        0,   0,   0,   1.4,   0.8,   1.2, 31,  0, 33,  0,  0, 41,  0,  0,  0,  0, 39,  0,  0, 34,  0,  0, 27,  0, 29,  0, 28,  0,  0, 35,  0,  0,  0,  0,  0, 32,  0,  0
6, 8183, 1,KN4UIR,     0.65, -61,   7, 3,   boost,   69.40,  98304.00,  254.57,   30.84,   64.64, 34.9, 9.62, 9.62, 3.73,  77.00,  -0.04,   0.50, -35.28,  14.59,  16.97,   8.00,   0.03,   0.13,   8.00, 9.52, 0.00, 0.00, 0.00, 0.00, 1, 1, 11,  40.3885506, -87.5133467,   210.0, 2023,  4, 15, 18, 34, 46,        0,        0,   0,   0,   1.4,   0.8,   1.2, 31,  0, 33,  0,  0, 41,  0,  0,  0,  0, 39,  0,  0, 34,  0,  0, 27,  0, 29,  0, 28,  0,  0, 35,  0,  0,  0,  0,  0, 32,  0,  0
6, 8183, 1,KN4UIR,     0.73, -61,   6, 3,   boost,   69.90,  98207.00,  262.84,   39.11,   72.18, 34.9, 9.62, 9.62, 3.73,  77.95,  -0.54,   0.11,  -8.18,  13.79,  15.63,   8.00,   0.04,   0.28,  11.00, 9.52, 0.00, 0.00, 0.00, 0.00, 1, 1, 11,  40.3885506, -87.5133467,   210.0, 2023,  4, 15, 18, 34, 46,        0,        0,   0,   0,   1.4,   0.8,   1.2, 31,  0, 33,  0,  0, 41,  0,  0,  0,  0, 39,  0,  0, 34,  0,  0, 27,  0, 29,  0, 28,  0,  0, 35,  0,  0,  0,  0,  0, 32,  0,  0
6, 8183, 1,KN4UIR,     0.76, -62,   4, 3,   boost,   69.90,  98207.00,  262.84,   39.11,   72.18, 34.9, 9.62, 9.56, 3.71,  77.95,  -0.54,   0.11,  -8.18,  13.79,  15.63,   8.00,   0.04,   0.28,  11.00, 9.50, 0.00, 0.00, 0.00, 0.00, 1, 1, 11,  40.3885506, -87.5133467,   210.0, 2023,  4, 15, 18, 34, 46,        0,        0,   0,   0,   1.4,   0.8,   1.2, 31,  0, 33,  0,  0, 41,  0,  0,  0,  0, 39,  0,  0, 34,  0,  0, 27,  0, 29,  0, 28,  0,  0, 35,  0,  0,  0,  0,  0, 32,  0,  0
6, 8183, 1,KN4UIR,     0.84, -62,   7, 3,   boost,   70.91,  98088.00,  273.01,   49.28,   79.75, 34.9, 9.62, 9.56, 3.71,  79.81,  -0.32,   0.30,  18.01,  13.79,   9.28,   8.00,   0.04,   0.29,  12.00, 9.50, 0.00, 0.00, 0.00, 0.00, 1, 1, 11,  40.3885506, -87.5133467,   210.0, 2023,  4, 15, 18, 34, 46,        0,        0,   0,   0,   1.4,   0.8,   1.2, 31,  0, 33,  0,  0, 41,  0,  0,  0,  0, 39,  0,  0, 34,  0,  0, 27,  0, 29,  0, 28,  0,  0, 35,  0,  0,  0,  0,  0, 32,  0,  0
6, 8183, 1,KN4UIR,     0.87, -61,   7, 3,   boost,   70.91,  98088.00,  273.01,   49.28,   79.75, 34.9, 9.62, 9.62, 3.71,  79.81,  -0.32,   0.30,  18.01,  13.79,   9.28,   8.00,   0.04,   0.29,  12.00, 9.50, 0.00, 0.00, 0.00, 0.00, 1, 1, 11,  40.3885506, -87.5133467,   210.0, 2023,  4, 15, 18, 34, 46,        0,        0,   0,   0,   1.4,   0.8,   1.2, 31,  0, 33,  0,  0, 41,  0,  0,  0,  0, 39,  0,  0, 34,  0,  0, 27,  0, 29,  0, 28,  0,  0, 35,  0,  0,  0,  0,  0, 32,  0,  0
6, 8183, 1,KN4UIR,     0.95, -61,   6, 3,   boost,   73.93,  97932.00,  286.35,   62.62,   87.48, 34.9, 9.62, 9.62, 3.71,  80.97,  -0.75,   0.02,  45.11,  14.71,   2.87,   8.00,   0.04,   0.29,  14.00, 9.50, 0.00, 0.00, 0.00, 0.00, 1, 1, 11,  40.3885506, -87.5133467,   210.0, 2023,  4, 15, 18, 34, 46,        0,        0,   0,   0,   1.4,   0.8,   1.2, 31,  0, 33,  0,  0, 41,  0,  0,  0,  0, 39,  0,  0, 34,  0,  0, 27,  0, 29,  0, 28,  0,  0, 35,  0,  0,  0,  0,  0, 32,  0,  0
6, 8183, 1,KN4UIR,     0.98, -61,   7, 3,   boost,   73.93,  97932.00,  286.35,   62.62,   87.48, 34.9, 9.62, 9.56, 3.70,  80.97,  -0.75,   0.02,  45.11,  14.71,   2.87,   8.00,   0.04,   0.29,  14.00, 9.51, 0.00, 0.00, 0.00, 0.00, 1, 1, 11,  40.3885506, -87.5133467,   210.0, 2023,  4, 15, 18, 34, 46,        0,        0,   0,   0,   1.4,   0.8,   1.2, 31,  0, 33,  0,  0, 41,  0,  0,  0,  0, 39,  0,  0, 34,  0,  0, 27,  0, 29,  0, 28,  0,  0, 35,  0,  0,  0,  0,  0, 32,  0,  0
6, 8183, 1,KN4UIR,     1.06, -62,   8, 3,   boost,   75.44,  97787.00,  298.76,   75.03,   95.40, 34.9, 9.62, 9.56, 3.70,  81.80,  -0.38,   0.49,  65.49,   8.24,  -4.21,   8.00,   0.04,   0.29,  15.00, 9.51, 0.00, 0.00, 0.00, 0.00, 1, 1, 11,  40.3885506, -87.5133467,   210.0, 2023,  4, 15, 18, 34, 46,        0,        0,   0,   0,   1.4,   0.8,   1.2, 31,  0, 33,  0,  0, 41,  0,  0,  0,  0, 39,  0,  0, 34,  0,  0, 27,  0, 29,  0, 28,  0,  0, 35,  0,  0,  0,  0,  0, 32,  0,  0
6, 8183, 1,KN4UIR,     1.09, -62,   7, 3,   boost,   75.44,  97787.00,  298.76,   75.03,   95.40, 34.9, 9.62, 9.62, 3.70,  81.80,  -0.38,   0.49,  65.49,   8.24,  -4.21,   8.00,   0.04,   0.29,  15.00, 9.50, 0.00, 0.00, 0.00, 0.00, 1, 1, 11,  40.3885506, -87.5133467,   210.0, 2023,  4, 15, 18, 34, 46,        0,        0,   0,   0,   1.4,   0.8,   1.2, 31,  0, 33,  0,  0, 41,  0,  0,  0,  0, 39,  0,  0, 34,  0,  0, 27,  0, 29,  0, 28,  0,  0, 35,  0,  0,  0,  0,  0, 32,  0,  0
6, 8183, 1,KN4UIR,     1.17, -64,   6, 3,   boost,   74.93,  97575.00,  316.94,   93.21,  103.35, 34.9, 9.62, 9.62, 3.70,  82.53,  -0.28,  -0.12,  85.51,   0.12,  -5.13,   8.00,   0.04,   0.28,  15.00, 9.50, 0.00, 0.00, 0.00, 0.00, 1, 1, 11,  40.3885506, -87.5133467,   210.0, 2023,  4, 15, 18, 34, 46,        0,        0,   0,   0,   1.4,   0.8,   1.2, 31,  0, 33,  0,  0, 41,  0,  0,  0,  0, 39,  0,  0, 34,  0,  0, 27,  0, 29,  0, 28,  0,  0, 35,  0,  0,  0,  0,  0, 32,  0,  0
6, 8183, 1,KN4UIR,     1.20, -65,   9, 3,   boost,   74.93,  97575.00,  316.94,   93.21,  103.35, 34.9, 9.62, 9.56, 3.70,  82.53,  -0.28,  -0.12,  85.51,   0.12,  -5.13,   8.00,   0.04,   0.28,  15.00, 9.50, 0.00, 0.00, 0.00, 0.00, 1, 1, 11,  40.3885506, -87.5133467,   210.0, 2023,  4, 15, 18, 34, 46,        0,        0,   0,   0,   1.4,   0.8,   1.2, 31,  0, 33,  0,  0, 41,  0,  0,  0,  0, 39,  0,  0, 34,  0,  0, 27,  0, 29,  0, 28,  0,  0, 35,  0,  0,  0,  0,  0, 32,  0,  0
6, 8183, 1,KN4UIR,     1.28, -68,   7, 3,   boost,   76.44,  97368.00,  334.72,  110.99,  111.36, 34.9, 9.62, 9.56, 3.70,  83.28,   0.12,  -0.59, 107.91,  -4.46,   3.05,   8.00,   0.04,   0.25,  15.00, 9.50, 0.00, 0.00, 0.00, 0.00, 1, 1, 11,  40.3885506, -87.5133467,   210.0, 2023,  4, 15, 18, 34, 46,        0,        0,   0,   0,   1.4,   0.8,   1.2, 31,  0, 33,  0,  0, 41,  0,  0,  0,  0, 39,  0,  0, 34,  0,  0, 27,  0, 29,  0, 28,  0,  0, 35,  0,  0,  0,  0,  0, 32,  0,  0
6, 8183, 1,KN4UIR,     1.31, -69,   5, 3,   boost,   76.44,  97368.00,  334.72,  110.99,  111.36, 34.9, 9.62, 9.62, 3.70,  83.28,   0.12,  -0.59, 107.91,  -4.46,   3.05,   8.00,   0.04,   0.25,  15.00, 9.51, 0.00, 0.00, 0.00, 0.00, 1, 1, 11,  40.3885506, -87.5133467,   210.0, 2023,  4, 15, 18, 34, 46,        0,        0,   0,   0,   1.4,   0.8,   1.2, 31,  0, 33,  0,  0, 41,  0,  0,  0,  0, 39,  0,  0, 34,  0,  0, 27,  0, 29,  0, 28,  0,  0, 35,  0,  0,  0,  0,  0, 32,  0,  0
6, 8183, 1,KN4UIR,     1.39, -70,   7, 3,   boost,   75.44,  97176.00,  351.24,  127.51,  119.39, 34.9, 9.62, 9.62, 3.70,  83.40,  -0.74,   0.17, 106.94,  -0.06,  12.82,   8.00,   0.04,   0.22,  15.00, 9.51, 0.00, 0.00, 0.00, 0.00, 1, 1, 11,  40.3885506, -87.5133467,   210.0, 2023,  4, 15, 18, 34, 46,        0,        0,   0,   0,   1.4,   0.8,   1.2, 31,  0, 33,  0,  0, 41,  0,  0,  0,  0, 39,  0,  0, 34,  0,  0, 27,  0, 29,  0, 28,  0,  0, 35,  0,  0,  0,  0,  0, 32,  0,  0
6, 8183, 1,KN4UIR,     1.42, -73,   7, 3,   boost,   75.44,  97176.00,  351.24,  127.51,  119.39, 34.9, 9.62, 9.62, 3.70,  83.40,  -0.74,   0.17, 106.94,  -0.06,  12.82,   8.00,   0.04,   0.22,  15.00, 9.51, 0.00, 0.00, 0.00, 0.00, 1, 1, 11,  40.3885506, -87.5133467,   210.0, 2023,  4, 15, 18, 34, 46,        0,        0,   0,   0,   1.4,   0.8,   1.2, 34,  0, 28,  0,  0, 38,  0,  0,  0,  0, 38,  0,  0, 16,  0,  0, 22,  0, 17,  0, 28,  0,  0, 32,  0,  0,  0,  0,  0, 35,  0,  0
6, 8183, 1,KN4UIR,     1.42, -73,   6, 3,   boost,   75.44,  97176.00,  351.24,  127.51,  119.39, 34.9, 9.62, 9.62, 3.70,  83.40,  -0.74,   0.17, 106.94,  -0.06,  12.82,   8.00,   0.04,   0.22,  15.00, 9.51, 0.00, 0.00, 0.00, 0.00, 1, 1, 11,  40.3885506, -87.5133467,   210.0, 2023,  4, 15, 18, 34, 46,        0,        0,   0,   0,   1.4,   0.8,   1.2, 34,  0, 28,  0,  0, 38,  0,  0,  0,  0, 38,  0,  0, 16,  0,  0, 22,  0, 17,  0, 28,  0,  0, 32,  0,  0,  0,  0,  0, 35,  0,  0
6, 8183, 1,KN4UIR,     1.50, -74,   7, 3,   boost,   77.45,  96986.00,  367.62,  143.89,  127.43, 34.9, 9.62, 9.62, 3.70,  83.60,  -1.28,  -0.23,  62.87,   9.52,  11.96,   8.00,   0.04,   0.20,  17.00, 9.51, 0.00, 0.00, 0.00, 0.00, 1, 1, 11,  40.3885506, -87.5133467,   210.0, 2023,  4, 15, 18, 34, 46,        0,        0,   0,   0,   1.4,   0.8,   1.2, 34,  0, 28,  0,  0, 38,  0,  0,  0,  0, 38,  0,  0, 16,  0,  0, 22,  0, 17,  0, 28,  0,  0, 32,  0,  0,  0,  0,  0, 35,  0,  0
6, 8183, 1,KN4UIR,     1.53, -73,   5, 3,   boost,   77.45,  96986.00,  367.62,  143.89,  127.43, 34.9, 9.62, 9.56, 3.70,  83.60,  -1.28,  -0.23,  62.87,   9.52,  11.96,   8.00,   0.04,   0.20,  17.00, 9.51, 0.00, 0.00, 0.00, 0.00, 1, 1, 11,  40.3885506, -87.5133467,   210.0, 2023,  4, 15, 18, 34, 46,        0,        0,   0,   0,   1.4,   0.8,   1.2, 34,  0, 28,  0,  0, 38,  0,  0,  0,  0, 38,  0,  0, 16,  0,  0, 22,  0, 17,  0, 28,  0,  0, 32,  0,  0,  0,  0,  0, 35,  0,  0
6, 8183, 1,KN4UIR,     1.61, -67,   8, 3,   boost,   76.94,  96751.00,  387.90,  164.17,  135.48, 34.9, 9.62, 9.56, 3.70,  83.50,   1.98,  -2.48, -17.03,  15.32,   2.50,   8.00,   0.04,   0.21,  18.00, 9.51, 0.00, 0.00, 0.00, 0.00, 1, 1, 11,  40.3885506, -87.5133467,   210.0, 2023,  4, 15, 18, 34, 46,        0,        0,   0,   0,   1.4,   0.8,   1.2, 34,  0, 28,  0,  0, 38,  0,  0,  0,  0, 38,  0,  0, 16,  0,  0, 22,  0, 17,  0, 28,  0,  0, 32,  0,  0,  0,  0,  0, 35,  0,  0
6, 8183, 1,KN4UIR,     1.64, -67,   7, 3,   boost,   76.94,  96751.00,  387.90,  164.17,  135.48, 34.9, 9.62, 9.56, 3.70,  83.50,   1.98,  -2.48, -17.03,  15.32,   2.50,   8.00,   0.04,   0.21,  18.00, 9.51, 0.00, 0.00, 0.00, 0.00, 1, 1, 11,  40.3885506, -87.5133467,   210.0, 2023,  4, 15, 18, 34, 46,        0,        0,   0,   0,   1.4,   0.8,   1.2, 34,  0, 28,  0,  0, 38,  0,  0,  0,  0, 38,  0,  0, 16,  0,  0, 22,  0, 17,  0, 28,  0,  0, 32,  0,  0,  0,  0,  0, 35,  0,  0
6, 8183, 1,KN4UIR,     1.72, -65,   8, 3,   boost,   74.93,  96491.00,  410.40,  186.67,  143.37, 34.9, 9.62, 9.56, 3.70,  82.28,   3.96,  -6.35, -21.61,   9.40,  -4.33,   8.00,   0.04,   0.22,  18.00, 9.51, 0.00, 0.00, 0.00, 0.00, 1, 1, 11,  40.3885506, -87.5133467,   210.0, 2023,  4, 15, 18, 34, 46,        0,        0,   0,   0,   1.4,   0.8,   1.2, 34,  0, 28,  0,  0, 38,  0,  0,  0,  0, 38,  0,  0, 16,  0,  0, 22,  0, 17,  0, 28,  0,  0, 32,  0,  0,  0,  0,  0, 35,  0,  0
6, 8183, 1,KN4UIR,     1.75, -65,   6, 3,   boost,   74.93,  96491.00,  410.40,  186.67,  143.37, 34.9, 9.62, 9.62, 3.70,  82.28,   3.96,  -6.35, -21.61,   9.40,  -4.33,   8.00,   0.04,   0.22,  18.00, 9.51, 0.00, 0.00, 0.00, 0.00, 1, 1, 11,  40.3885506, -87.5133467,   210.0, 2023,  4, 15, 18, 34, 46,        0,        0,   0,   0,   1.4,   0.8,   1.2, 34,  0, 28,  0,  0, 38,  0,  0,  0,  0, 38,  0,  0, 16,  0,  0, 22,  0, 17,  0, 28,  0,  0, 32,  0,  0,  0,  0,  0, 35,  0,  0
6, 8183, 1,KN4UIR,     1.83, -65,   5, 3,   boost,   75.44,  96218.00,  434.07,  210.34,  151.18, 34.9, 9.62, 9.62, 3.70,  81.47,  -0.26,  -0.00,  53.47,  -1.22,  -3.05,   8.00,   0.04,   0.21,  18.00, 9.51, 0.00, 0.00, 0.00, 0.00, 1, 1, 11,  40.3885506, -87.5133467,   210.0, 2023,  4, 15, 18, 34, 46,        0,        0,   0,   0,   1.4,   0.8,   1.2, 34,  0, 28,  0,  0, 38,  0,  0,  0,  0, 38,  0,  0, 16,  0,  0, 22,  0, 17,  0, 28,  0,  0, 32,  0,  0,  0,  0,  0, 35,  0,  0
6, 8183, 1,KN4UIR,     1.86, -67,   7, 3,   boost,   75.44,  96218.00,  434.07,  210.34,  151.18, 34.9, 9.62, 9.56, 3.70,  81.47,  -0.26,  -0.00,  53.47,  -1.22,  -3.05,   8.00,   0.04,   0.21,  18.00, 9.50, 0.00, 0.00, 0.00, 0.00, 1, 1, 11,  40.3885506, -87.5133467,   210.0, 2023,  4, 15, 18, 34, 46,        0,        0,   0,   0,   1.4,   0.8,   1.2, 34,  0, 28,  0,  0, 38,  0,  0,  0,  0, 38,  0,  0, 16,  0,  0, 22,  0, 17,  0, 28,  0,  0, 32,  0,  0,  0,  0,  0, 35,  0,  0
6, 8183, 1,KN4UIR,     1.94, -67,   6, 3,   boost,   74.93,  95950.00,  457.36,  233.63,  158.99, 34.9, 9.62, 9.56, 3.70,  80.18,  -0.30,  -0.88, 102.85,  -8.30,   9.70,   8.00,   0.04,   0.19,  18.00, 9.50, 0.00, 0.00, 0.00, 0.00, 1, 1, 11,  40.3885506, -87.5133467,   210.0, 2023,  4, 15, 18, 34, 46,        0,        0,   0,   0,   1.4,   0.8,   1.2, 34,  0, 28,  0,  0, 38,  0,  0,  0,  0, 38,  0,  0, 16,  0,  0, 22,  0, 17,  0, 28,  0,  0, 32,  0,  0,  0,  0,  0, 35,  0,  0
6, 8183, 1,KN4UIR,     1.97, -68,   8, 3,   boost,   74.93,  95950.00,  457.36,  233.63,  158.99, 34.9, 9.62, 9.62, 3.70,  80.18,  -0.30,  -0.88, 102.85,  -8.30,   9.70,   8.00,   0.04,   0.19,  18.00, 9.51, 0.00, 0.00, 0.00, 0.00, 1, 1, 11,  40.3885506, -87.5133467,   210.0, 2023,  4, 15, 18, 34, 46,        0,        0,   0,   0,   1.4,   0.8,   1.2, 34,  0, 28,  0,  0, 38,  0,  0,  0,  0, 38,  0,  0, 16,  0,  0, 22,  0, 17,  0, 28,  0,  0, 32,  0,  0,  0,  0,  0, 35,  0,  0
6, 8183, 1,KN4UIR,     1.98, -73,   5, 3,   boost,   74.93,  95950.00,  457.36,  233.63,  158.99, 34.9, 9.62, 9.62, 3.70,  80.18,  -0.30,  -0.88, 102.85,  -8.30,   9.70,   8.00,   0.04,   0.19,  18.00, 9.51, 0.00, 0.00, 0.00, 0.00, 1, 1, 10,  40.3886273, -87.5132773,   255.0, 2023,  4, 15, 18, 34, 48,       10,       46,  35,  77,   1.5,   0.8,   1.3, 34,  0, 28,  0,  0, 38,  0,  0,  0,  0, 38,  0,  0, 16,  0,  0, 22,  0, 17,  0, 28,  0,  0, 32,  0,  0,  0,  0,  0, 35,  0,  0
6, 8183, 1,KN4UIR,     2.05, -70,   8, 3,   boost,   71.41,  95622.00,  485.93,  262.20,  166.57, 34.9, 9.62, 9.62, 3.70,  78.91,   0.24,   2.24, 153.45,   8.73,  16.11,   8.00,   0.04,   0.16,  19.00, 9.51, 0.00, 0.00, 0.00, 0.00, 1, 1, 10,  40.3886273, -87.5132773,   255.0, 2023,  4, 15, 18, 34, 48,       10,       46,  35,  77,   1.5,   0.8,   1.3, 34,  0, 28,  0,  0, 38,  0,  0,  0,  0, 38,  0,  0, 16,  0,  0, 22,  0, 17,  0, 28,  0,  0, 32,  0,  0,  0,  0,  0, 35,  0,  0
6, 8183, 1,KN4UIR,     2.08, -70,   7, 3,   boost,   71.41,  95622.00,  485.93,  262.20,  166.57, 34.9, 9.62, 9.56, 3.70,  78.91,   0.24,   2.24, 153.45,   8.73,  16.11,   8.00,   0.04,   0.16,  19.00, 9.50, 0.00, 0.00, 0.00, 0.00, 1, 1, 10,  40.3886273, -87.5132773,   255.0, 2023,  4, 15, 18, 34, 48,       10,       46,  35,  77,   1.5,   0.8,   1.3, 34,  0, 28,  0,  0, 38,  0,  0,  0,  0, 38,  0,  0, 16,  0,  0, 22,  0, 17,  0, 28,  0,  0, 32,  0,  0,  0,  0,  0, 35,  0,  0
6, 8183, 1,KN4UIR,     2.16, -76,  10, 3,   boost,   70.91,  95347.00,  509.95,  286.22,  173.86, 34.9, 9.62, 9.56, 3.70,  77.54,   2.42,   1.14, 235.60,   7.39,  12.15,   8.00,   0.04,   0.11,  21.00, 9.50, 0.00, 0.00, 0.00, 0.00, 1, 1, 10,  40.3886273, -87.5132773,   255.0, 2023,  4, 15, 18, 34, 48,       10,       46,  35,  77,   1.5,   0.8,   1.3, 34,  0, 28,  0,  0, 38,  0,  0,  0,  0, 38,  0,  0, 16,  0,  0, 22,  0, 17,  0, 28,  0,  0, 32,  0,  0,  0,  0,  0, 35,  0,  0
6, 8183, 1,KN4UIR,     2.19, -77,   8, 3,   boost,   70.91,  95347.00,  509.95,  286.22,  173.86, 34.9, 9.62, 9.62, 3.70,  77.54,   2.42,   1.14, 235.60,   7.39,  12.15,   8.00,   0.04,   0.11,  21.00, 9.51, 0.00, 0.00, 0.00, 0.00, 1, 1, 10,  40.3886273, -87.5132773,   255.0, 2023,  4, 15, 18, 34, 48,       10,       46,  35,  77,   1.5,   0.8,   1.3, 34,  0, 28,  0,  0, 38,  0,  0,  0,  0, 38,  0,  0, 16,  0,  0, 22,  0, 17,  0, 28,  0,  0, 32,  0,  0,  0,  0,  0, 35,  0,  0
6, 8183, 1,KN4UIR,     2.27, -79,   6, 3,   boost,   63.87,  95033.00,  537.44,  313.71,  180.71, 34.9, 9.62, 9.62, 3.70,  73.07,   0.10,   2.43, 265.57,  -5.80,   7.51,   8.00,   0.04,   0.07,  21.00, 9.51, 0.00, 0.00, 0.00, 0.00, 1, 1, 10,  40.3886273, -87.5132773,   255.0, 2023,  4, 15, 18, 34, 48,       10,       46,  35,  77,   1.5,   0.8,   1.3, 34,  0, 28,  0,  0, 38,  0,  0,  0,  0, 38,  0,  0, 16,  0,  0, 22,  0, 17,  0, 28,  0,  0, 32,  0,  0,  0,  0,  0, 35,  0,  0
6, 8183, 1,KN4UIR,     2.30, -77,   8, 3,   boost,   63.87,  95033.00,  537.44,  313.71,  180.71, 34.9, 9.62, 9.62, 3.71,  73.07,   0.10,   2.43, 265.57,  -5.80,   7.51,   8.00,   0.04,   0.07,  21.00, 9.50, 0.00, 0.00, 0.00, 0.00, 1, 1, 10,  40.3886273, -87.5132773,   255.0, 2023,  4, 15, 18, 34, 48,       10,       46,  35,  77,   1.5,   0.8,   1.3, 34,  0, 28,  0,  0, 38,  0,  0,  0,  0, 38,  0,  0, 16,  0,  0, 22,  0, 17,  0, 28,  0,  0, 32,  0,  0,  0,  0,  0, 35,  0,  0
6, 8183, 1,KN4UIR,     2.38, -73,   7, 3,   boost,   62.36,  94687.00,  567.82,  344.09,  187.10, 34.9, 9.62, 9.62, 3.71,  70.35,  -5.46,   5.23, 183.72, -10.01,   7.57,   8.00,   0.04,   0.05,  22.00, 9.50, 0.00, 0.00, 0.00, 0.00, 1, 1, 10,  40.3886273, -87.5132773,   255.0, 2023,  4, 15, 18, 34, 48,       10,       46,  35,  77,   1.5,   0.8,   1.3, 34,  0, 28,  0,  0, 38,  0,  0,  0,  0, 38,  0,  0, 16,  0,  0, 22,  0, 17,  0, 28,  0,  0, 32,  0,  0,  0,  0,  0, 35,  0,  0
6, 8183, 1,KN4UIR,     2.41, -73,   8, 3,   boost,   62.36,  94687.00,  567.82,  344.09,  187.10, 34.9, 9.62, 9.62, 3.71,  70.35,  -5.46,   5.23, 183.72, -10.01,   7.57,   8.00,   0.04,   0.05,  22.00, 9.50, 0.00, 0.00, 0.00, 0.00, 1, 1, 10,  40.3886273, -87.5132773,   255.0, 2023,  4, 15, 18, 34, 48,       10,       46,  35,  77,   1.5,   0.8,   1.3, 34,  0, 28,  0,  0, 38,  0,  0,  0,  0, 38,  0,  0, 16,  0,  0, 22,  0, 17,  0, 28,  0,  0, 32,  0,  0,  0,  0,  0, 35,  0,  0
6, 8183, 1,KN4UIR,     2.49, -74,   5, 3,   boost,   58.34,  94386.00,  594.33,  370.60,  193.15, 34.9, 9.62, 9.62, 3.71,  67.70,  -1.54,   5.88, 212.96,   0.00,   4.27,   8.00,   0.04,   0.05,  23.00, 9.50, 0.00, 0.00, 0.00, 0.00, 1, 1, 10,  40.3886273, -87.5132773,   255.0, 2023,  4, 15, 18, 34, 48,       10,       46,  35,  77,   1.5,   0.8,   1.3, 34,  0, 28,  0,  0, 38,  0,  0,  0,  0, 38,  0,  0, 16,  0,  0, 22,  0, 17,  0, 28,  0,  0, 32,  0,  0,  0,  0,  0, 35,  0,  0
6, 8183, 1,KN4UIR,     2.52, -75,   6, 3,   boost,   58.34,  94386.00,  594.33,  370.60,  193.15, 34.9, 9.62, 9.62, 3.71,  67.70,  -1.54,   5.88, 212.96,   0.00,   4.27,   8.00,   0.04,   0.05,  23.00, 9.51, 0.00, 0.00, 0.00, 0.00, 1, 1, 10,  40.3886273, -87.5132773,   255.0, 2023,  4, 15, 18, 34, 48,       10,       46,  35,  77,   1.5,   0.8,   1.3, 29,  0, 30,  0,  0, 37,  0,  0,  0,  0, 36,  0,  0, 11,  0,  0, 18,  0, 13,  0, 26,  0,  0, 35,  0,  0,  0,  0,  0, 36,  0,  0
6, 8183, 1,KN4UIR,     2.52, -75,  11, 3,   boost,   58.34,  94386.00,  594.33,  370.60,  193.15, 34.9, 9.62, 9.62, 3.71,  67.70,  -1.54,   5.88, 212.96,   0.00,   4.27,   8.00,   0.04,   0.05,  23.00, 9.51, 0.00, 0.00, 0.00, 0.00, 1, 1, 10,  40.3886273, -87.5132773,   255.0, 2023,  4, 15, 18, 34, 48,       10,       46,  35,  77,   1.5,   0.8,   1.3, 29,  0, 30,  0,  0, 37,  0,  0,  0,  0, 36,  0,  0, 11,  0,  0, 18,  0, 13,  0, 26,  0,  0, 35,  0,  0,  0,  0,  0, 36,  0,  0
6, 8183, 1,KN4UIR,     2.60, -79,   8, 3,   boost,   50.79,  94076.00,  621.70,  397.96,  198.59, 34.9, 9.62, 9.62, 3.71,  62.55,   2.68,  -2.77,  67.93,   5.31, -11.29,   8.00,   0.04,   0.06,  23.00, 9.51, 0.00, 0.00, 0.00, 0.00, 1, 1, 10,  40.3886273, -87.5132773,   255.0, 2023,  4, 15, 18, 34, 48,       10,       46,  35,  77,   1.5,   0.8,   1.3, 29,  0, 30,  0,  0, 37,  0,  0,  0,  0, 36,  0,  0, 11,  0,  0, 18,  0, 13,  0, 26,  0,  0, 35,  0,  0,  0,  0,  0, 36,  0,  0
6, 8183, 1,KN4UIR,     2.63, -81,  10, 3,   boost,   50.79,  94076.00,  621.70,  397.96,  198.59, 34.9, 9.62, 9.62, 3.70,  62.55,   2.68,  -2.77,  67.93,   5.31, -11.29,   8.00,   0.04,   0.06,  23.00, 9.51, 0.00, 0.00, 0.00, 0.00, 1, 1, 10,  40.3886273, -87.5132773,   255.0, 2023,  4, 15, 18, 34, 48,       10,       46,  35,  77,   1.5,   0.8,   1.3, 29,  0, 30,  0,  0, 37,  0,  0,  0,  0, 36,  0,  0, 11,  0,  0, 18,  0, 13,  0, 26,  0,  0, 35,  0,  0,  0,  0,  0, 36,  0,  0
6, 8183, 1,KN4UIR,     2.71, -85,  11, 3,   boost,   47.27,  93633.00,  660.93,  437.20,  203.46, 34.9, 9.62, 9.62, 3.70,  57.53,   6.19,  -2.82,-150.09,  10.44, -10.68,   8.00,   0.04,   0.06,  23.00, 9.51, 0.00, 0.00, 0.00, 0.00, 1, 1, 10,  40.3886273, -87.5132773,   255.0, 2023,  4, 15, 18, 34, 48,       10,       46,  35,  77,   1.5,   0.8,   1.3, 29,  0, 30,  0,  0, 37,  0,  0,  0,  0, 36,  0,  0, 11,  0,  0, 18,  0, 13,  0, 26,  0,  0, 35,  0,  0,  0,  0,  0, 36,  0,  0
6, 8183, 1,KN4UIR,     2.74, -79,  15, 3,   boost,   47.27,  93633.00,  660.93,  437.20,  203.46, 34.9, 9.62, 9.56, 3.71,  57.53,   6.19,  -2.82,-150.09,  10.44, -10.68,   8.00,   0.04,   0.06,  23.00, 9.50, 0.00, 0.00, 0.00, 0.00, 1, 1, 10,  40.3886273, -87.5132773,   255.0, 2023,  4, 15, 18, 34, 48,       10,       46,  35,  77,   1.5,   0.8,   1.3, 29,  0, 30,  0,  0, 37,  0,  0,  0,  0, 36,  0,  0, 11,  0,  0, 18,  0, 13,  0, 26,  0,  0, 35,  0,  0,  0,  0,  0, 36,  0,  0
6, 8183, 1,KN4UIR,     2.82, -69,   6, 3,   boost,   41.24,  93402.00,  681.45,  457.72,  207.86, 34.9, 9.62, 9.56, 3.71,  51.67,  -5.16,  10.37,-578.75,   0.24,  -1.22,   8.00,   0.04,   0.06,  23.00, 9.50, 0.00, 0.00, 0.00, 0.00, 1, 1, 10,  40.3886273, -87.5132773,   255.0, 2023,  4, 15, 18, 34, 48,       10,       46,  35,  77,   1.5,   0.8,   1.3, 29,  0, 30,  0,  0, 37,  0,  0,  0,  0, 36,  0,  0, 11,  0,  0, 18,  0, 13,  0, 26,  0,  0, 35,  0,  0,  0,  0,  0, 36,  0,  0
6, 8183, 1,KN4UIR,     2.85, -66,   7, 3,   boost,   41.24,  93402.00,  681.45,  457.72,  207.86, 34.9, 9.62, 9.56, 3.70,  51.67,  -5.16,  10.37,-578.75,   0.24,  -1.22,   8.00,   0.04,   0.06,  23.00, 9.50, 0.00, 0.00, 0.00, 0.00, 1, 1, 10,  40.3886273, -87.5132773,   255.0, 2023,  4, 15, 18, 34, 48,       10,       46,  35,  77,   1.5,   0.8,   1.3, 29,  0, 30,  0,  0, 37,  0,  0,  0,  0, 36,  0,  0, 11,  0,  0, 18,  0, 13,  0, 26,  0,  0, 35,  0,  0,  0,  0,  0, 36,  0,  0
6, 8183, 1,KN4UIR,     2.93, -64,   8, 3,   boost,   36.71,  93078.00,  710.30,  486.57,  211.74, 34.9, 9.62, 9.56, 3.70,  46.36,  11.30,  -5.19,-575.70,  25.27, -21.24,   8.00,   0.04,   0.19,  22.00, 9.50, 0.00, 0.00, 0.00, 0.00, 1, 1, 10,  40.3886273, -87.5132773,   255.0, 2023,  4, 15, 18, 34, 48,       10,       46,  35,  77,   1.5,   0.8,   1.3, 29,  0, 30,  0,  0, 37,  0,  0,  0,  0, 36,  0,  0, 11,  0,  0, 18,  0, 13,  0, 26,  0,  0, 35,  0,  0,  0,  0,  0, 36,  0,  0
6, 8183, 1,KN4UIR,     2.96, -64,  11, 3,   boost,   36.71,  93078.00,  710.30,  486.57,  211.74, 34.9, 9.62, 9.56, 3.70,  46.36,  11.30,  -5.19,-575.70,  25.27, -21.24,   8.00,   0.04,   0.19,  22.00, 9.51, 0.00, 0.00, 0.00, 0.00, 1, 1, 10,  40.3886273, -87.5132773,   255.0, 2023,  4, 15, 18, 34, 48,       10,       46,  35,  77,   1.5,   0.8,   1.3, 29,  0, 30,  0,  0, 37,  0,  0,  0,  0, 36,  0,  0, 11,  0,  0, 18,  0, 13,  0, 26,  0,  0, 35,  0,  0,  0,  0,  0, 36,  0,  0
6, 8183, 1,KN4UIR,     2.97, -65,   4, 3,   boost,   36.71,  93078.00,  710.30,  486.57,  211.74, 34.9, 9.62, 9.56, 3.70,  46.36,  11.30,  -5.19,-575.70,  25.27, -21.24,   8.00,   0.04,   0.19,  22.00, 9.51, 0.00, 0.00, 0.00, 0.00, 1, 1,  6,  40.3885944, -87.5135384,   367.0, 2023,  4, 15, 18, 34, 49,       17,      158, 287,  84,   2.3,   0.9,   2.1, 29,  0, 30,  0,  0, 37,  0,  0,  0,  0, 36,  0,  0, 11,  0,  0, 18,  0, 13,  0, 26,  0,  0, 35,  0,  0,  0,  0,  0, 36,  0,  0
6, 8183, 1,KN4UIR,     3.04, -63,   7, 3,   boost,   31.18,  92825.00,  732.88,  509.15,  215.14, 34.9, 9.62, 9.56, 3.70,  40.86,  -4.92,   2.85,-720.05,  24.23, -27.22,   8.00,   0.04,   0.31,  21.00, 9.51, 0.00, 0.00, 0.00, 0.00, 1, 1,  6,  40.3885944, -87.5135384,   367.0, 2023,  4, 15, 18, 34, 49,       17,      158, 287,  84,   2.3,   0.9,   2.1, 29,  0, 30,  0,  0, 37,  0,  0,  0,  0, 36,  0,  0, 11,  0,  0, 18,  0, 13,  0, 26,  0,  0, 35,  0,  0,  0,  0,  0, 36,  0,  0
6, 8183, 1,KN4UIR,     3.07, -63,   7, 3,   boost,   31.18,  92825.00,  732.88,  509.15,  215.14, 34.9, 9.62, 9.56, 3.71,  40.86,  -4.92,   2.85,-720.05,  24.23, -27.22,   8.00,   0.04,   0.31,  21.00, 9.50, 0.00, 0.00, 0.00, 0.00, 1, 1,  6,  40.3885944, -87.5135384,   367.0, 2023,  4, 15, 18, 34, 49,       17,      158, 287,  84,   2.3,   0.9,   2.1, 29,  0, 30,  0,  0, 37,  0,  0,  0,  0, 36,  0,  0, 11,  0,  0, 18,  0, 13,  0, 26,  0,  0, 35,  0,  0,  0,  0,  0, 36,  0,  0
6, 8183, 1,KN4UIR,     3.15, -67,   8, 3,   boost,   29.17,  92465.00,  765.10,  541.37,  218.07, 34.9, 9.62, 9.56, 3.71,  37.81,  12.19,  -5.40,-760.64,  51.39, -53.22,   8.00,   0.04,   0.23,  27.00, 9.50, 0.00, 0.00, 0.00, 0.00, 1, 1,  6,  40.3885944, -87.5135384,   367.0, 2023,  4, 15, 18, 34, 49,       17,      158, 287,  84,   2.3,   0.9,   2.1, 29,  0, 30,  0,  0, 37,  0,  0,  0,  0, 36,  0,  0, 11,  0,  0, 18,  0, 13,  0, 26,  0,  0, 35,  0,  0,  0,  0,  0, 36,  0,  0
6, 8183, 1,KN4UIR,     3.18, -70,   6, 3,   boost,   29.17,  92465.00,  765.10,  541.37,  218.07, 34.9, 9.62, 9.62, 3.70,  37.81,  12.19,  -5.40,-760.64,  51.39, -53.22,   8.00,   0.04,   0.23,  27.00, 9.51, 0.00, 0.00, 0.00, 0.00, 1, 1,  6,  40.3885944, -87.5135384,   367.0, 2023,  4, 15, 18, 34, 49,       17,      158, 287,  84,   2.3,   0.9,   2.1, 29,  0, 30,  0,  0, 37,  0,  0,  0,  0, 36,  0,  0, 11,  0,  0, 18,  0, 13,  0, 26,  0,  0, 35,  0,  0,  0,  0,  0, 36,  0,  0
6, 8183, 1,KN4UIR,     3.26, -71,   7, 3,   boost,   19.61,  92193.00,  789.52,  565.79,  220.28, 34.9, 9.62, 9.62, 3.70,  34.03,  11.14,   9.50,-787.26,   0.12, -61.22,   8.00,   0.04,   0.06,  32.00, 9.51, 0.00, 0.00, 0.00, 0.00, 1, 1,  6,  40.3885944, -87.5135384,   367.0, 2023,  4, 15, 18, 34, 49,       17,      158, 287,  84,   2.3,   0.9,   2.1, 29,  0, 30,  0,  0, 37,  0,  0,  0,  0, 36,  0,  0, 11,  0,  0, 18,  0, 13,  0, 26,  0,  0, 35,  0,  0,  0,  0,  0, 36,  0,  0
6, 8183, 1,KN4UIR,     3.29, -68,   8, 3,   boost,   19.61,  92193.00,  789.52,  565.79,  220.28, 34.9, 9.62, 9.56, 3.70,  34.03,  11.14,   9.50,-787.26,   0.12, -61.22,   8.00,   0.04,   0.06,  32.00, 9.50, 0.00, 0.00, 0.00, 0.00, 1, 1,  6,  40.3885944, -87.5135384,   367.0, 2023,  4, 15, 18, 34, 49,       17,      158, 287,  84,   2.3,   0.9,   2.1, 29,  0, 30,  0,  0, 37,  0,  0,  0,  0, 36,  0,  0, 11,  0,  0, 18,  0, 13,  0, 26,  0,  0, 35,  0,  0,  0,  0,  0, 36,  0,  0
6, 8183, 1,KN4UIR,     3.37, -65,   9, 3,   boost,   18.10,  91675.00,  836.17,  612.44,  221.91, 34.9, 9.62, 9.56, 3.70,  28.81,  11.61,   0.75,-719.50,  54.93, -66.84,   8.00,   0.04,   0.14,  29.00, 9.50, 0.00, 0.00, 0.00, 0.00, 1, 1,  6,  40.3885944, -87.5135384,   367.0, 2023,  4, 15, 18, 34, 49,       17,      158, 287,  84,   2.3,   0.9,   2.1, 29,  0, 30,  0,  0, 37,  0,  0,  0,  0, 36,  0,  0, 11,  0,  0, 18,  0, 13,  0, 26,  0,  0, 35,  0,  0,  0,  0,  0, 36,  0,  0
6, 8183, 1,KN4UIR,     3.40, -66,  10, 3,   boost,   18.10,  91675.00,  836.17,  612.44,  221.91, 34.9, 9.62, 9.62, 3.70,  28.81,  11.61,   0.75,-719.50,  54.93, -66.84,   8.00,   0.04,   0.14,  29.00, 9.51, 0.00, 0.00, 0.00, 0.00, 1, 1,  6,  40.3885944, -87.5135384,   367.0, 2023,  4, 15, 18, 34, 49,       17,      158, 287,  84,   2.3,   0.9,   2.1, 29,  0, 30,  0,  0, 37,  0,  0,  0,  0, 36,  0,  0, 11,  0,  0, 18,  0, 13,  0, 26,  0,  0, 35,  0,  0,  0,  0,  0, 36,  0,  0
6, 8183, 1,KN4UIR,     3.48, -67,   5, 3,   boost,    3.52,  91622.00,  840.95,  617.22,  222.84, 34.9, 9.62, 9.62, 3.70,  27.24, -10.29,  13.34,-717.06, -17.76, -45.90,   8.00,   0.04,   0.28,  25.00, 9.51, 0.00, 0.00, 0.00, 0.00, 1, 1,  6,  40.3885944, -87.5135384,   367.0, 2023,  4, 15, 18, 34, 49,       17,      158, 287,  84,   2.3,   0.9,   2.1, 29,  0, 30,  0,  0, 37,  0,  0,  0,  0, 36,  0,  0, 11,  0,  0, 18,  0, 13,  0, 26,  0,  0, 35,  0,  0,  0,  0,  0, 36,  0,  0
6, 8183, 1,KN4UIR,     3.51, -63,  11, 3,   boost,    3.52,  91622.00,  840.95,  617.22,  222.84, 34.9, 9.62, 9.62, 3.71,  27.24, -10.29,  13.34,-717.06, -17.76, -45.90,   8.00,   0.04,   0.28,  25.00, 9.51, 0.00, 0.00, 0.00, 0.00, 1, 1,  6,  40.3885944, -87.5135384,   367.0, 2023,  4, 15, 18, 34, 49,       17,      158, 287,  84,   2.3,   0.9,   2.1, 29,  0, 30,  0,  0, 37,  0,  0,  0,  0, 36,  0,  0, 11,  0,  0, 18,  0, 13,  0, 26,  0,  0, 35,  0,  0,  0,  0,  0, 36,  0,  0
6, 8183, 1,KN4UIR,     3.59, -65,   6, 3,   boost,   13.58,  91086.00,  889.48,  665.75,  223.59, 34.9, 9.62, 9.62, 3.71,  13.63,  -6.05,  25.96,-792.81,  35.46, -63.54,   8.00,   0.04,   0.30,  25.00, 9.51, 0.00, 0.00, 0.00, 0.00, 1, 1,  6,  40.3885944, -87.5135384,   367.0, 2023,  4, 15, 18, 34, 49,       17,      158, 287,  84,   2.3,   0.9,   2.1, 29,  0, 30,  0,  0, 37,  0,  0,  0,  0, 36,  0,  0, 11,  0,  0, 18,  0, 13,  0, 26,  0,  0, 35,  0,  0,  0,  0,  0, 36,  0,  0
6, 8183, 1,KN4UIR,     3.62, -73,  12, 3,   boost,   13.58,  91086.00,  889.48,  665.75,  223.59, 34.9, 9.62, 9.62, 3.70,  13.63,  -6.05,  25.96,-792.81,  35.46, -63.54,   8.00,   0.04,   0.30,  25.00, 9.50, 0.00, 0.00, 0.00, 0.00, 1, 1,  6,  40.3885944, -87.5135384,   367.0, 2023,  4, 15, 18, 34, 49,       17,      158, 287,  84,   2.3,   0.9,   2.1, 33,  0, 36,  0,  0, 23,  0,  0,  0,  0, 33,  0,  0, 10,  0,  0,  0,  0,  8,  0, 27,  0,  0, 35,  0,  0,  0,  0,  0, 34,  0,  0
6, 8183, 1,KN4UIR,     3.62, -67,  11, 3,   boost,   13.58,  91086.00,  889.48,  665.75,  223.59, 34.9, 9.62, 9.62, 3.70,  13.63,  -6.05,  25.96,-792.81,  35.46, -63.54,   8.00,   0.04,   0.30,  25.00, 9.50, 0.00, 0.00, 0.00, 0.00, 1, 1,  6,  40.3885944, -87.5135384,   367.0, 2023,  4, 15, 18, 34, 49,       17,      158, 287,  84,   2.3,   0.9,   2.1, 33,  0, 36,  0,  0, 23,  0,  0,  0,  0, 33,  0,  0, 10,  0,  0,  0,  0,  8,  0, 27,  0,  0, 35,  0,  0,  0,  0,  0, 34,  0,  0
6, 8183, 1,KN4UIR,     3.70, -69,   6, 3,   boost,   -4.02,  91020.00,  895.47,  671.74,  223.96, 34.9, 9.62, 9.62, 3.70,  -1.27,  34.38, -28.74,-633.32,   0.92, -49.38,   8.00,   0.04,   0.13,  29.00, 9.50, 0.00, 0.00, 0.00, 0.00, 1, 1,  6,  40.3885944, -87.5135384,   367.0, 2023,  4, 15, 18, 34, 49,       17,      158, 287,  84,   2.3,   0.9,   2.1, 33,  0, 36,  0,  0, 23,  0,  0,  0,  0, 33,  0,  0, 10,  0,  0,  0,  0,  8,  0, 27,  0,  0, 35,  0,  0,  0,  0,  0, 34,  0,  0
6, 8183, 1,KN4UIR,     3.73, -77,   5, 3,   boost,   -4.02,  91020.00,  895.47,  671.74,  223.96, 34.9, 9.62, 9.62, 3.71,  -1.27,  34.38, -28.74,-633.32,   0.92, -49.38,   8.00,   0.04,   0.13,  29.00, 9.50, 0.00, 0.00, 0.00, 0.00, 1, 1,  6,  40.3885944, -87.5135384,   367.0, 2023,  4, 15, 18, 34, 49,       17,      158, 287,  84,   2.3,   0.9,   2.1, 33,  0, 36,  0,  0, 23,  0,  0,  0,  0, 33,  0,  0, 10,  0,  0,  0,  0,  8,  0, 27,  0,  0, 35,  0,  0,  0,  0,  0, 34,  0,  0
6, 8183, 1,KN4UIR,     3.81, -74,  10, 3,   boost,    9.56,  90553.00,  937.96,  714.23,  224.07, 34.9, 9.62, 9.62, 3.71,  -2.92,  -3.12,  -5.38,-581.26,  29.66, -30.15,   8.00,   0.04,   0.08,  31.00, 9.50, 0.00, 0.00, 0.00, 0.00, 1, 1,  6,  40.3885944, -87.5135384,   367.0, 2023,  4, 15, 18, 34, 49,       17,      158, 287,  84,   2.3,   0.9,   2.1, 33,  0, 36,  0,  0, 23,  0,  0,  0,  0, 33,  0,  0, 10,  0,  0,  0,  0,  8,  0, 27,  0,  0, 35,  0,  0,  0,  0,  0, 34,  0,  0
6, 8183, 1,KN4UIR,     3.84, -75,  12, 3,   boost,    9.56,  90553.00,  937.96,  714.23,  224.07, 34.9, 9.62, 9.56, 3.70,  -2.92,  -3.12,  -5.38,-581.26,  29.66, -30.15,   8.00,   0.04,   0.08,  31.00, 9.51, 0.00, 0.00, 0.00, 0.00, 1, 1,  6,  40.3885944, -87.5135384,   367.0, 2023,  4, 15, 18, 34, 49,       17,      158, 287,  84,   2.3,   0.9,   2.1, 33,  0, 36,  0,  0, 23,  0,  0,  0,  0, 33,  0,  0, 10,  0,  0,  0,  0,  8,  0, 27,  0,  0, 35,  0,  0,  0,  0,  0, 34,  0,  0
6, 8183, 1,KN4UIR,     3.92, -74,   6, 3,   boost,    3.02,  90503.00,  942.52,  718.79,  224.50, 34.9, 9.62, 9.56, 3.70,  -8.34,   3.23, -11.12,-479.51, -25.45, -15.02,   8.00,   0.04,   0.02,  32.00, 9.51, 0.00, 0.00, 0.00, 0.00, 1, 1,  6,  40.3885944, -87.5135384,   367.0, 2023,  4, 15, 18, 34, 49,       17,      158, 287,  84,   2.3,   0.9,   2.1, 33,  0, 36,  0,  0, 23,  0,  0,  0,  0, 33,  0,  0, 10,  0,  0,  0,  0,  8,  0, 27,  0,  0, 35,  0,  0,  0,  0,  0, 34,  0,  0
6, 8183, 1,KN4UIR,     3.95, -70,  11, 4,    fast,    3.02,  90503.00,  942.52,  718.79,  224.50, 34.9, 9.62, 9.62, 3.73,  -8.34,   3.23, -11.12,-479.51, -25.45, -15.02,   8.00,   0.04,   0.02,  32.00, 9.51, 0.00, 0.00, 0.00, 0.00, 1, 1,  6,  40.3885944, -87.5135384,   367.0, 2023,  4, 15, 18, 34, 49,       17,      158, 287,  84,   2.3,   0.9,   2.1, 33,  0, 36,  0,  0, 23,  0,  0,  0,  0, 33,  0,  0, 10,  0,  0,  0,  0,  8,  0, 27,  0,  0, 35,  0,  0,  0,  0,  0, 34,  0,  0
6, 8183, 1,KN4UIR,     3.97, -67,   7, 4,    fast,    3.02,  90503.00,  942.52,  718.79,  224.50, 34.9, 9.62, 9.62, 3.73,  -8.34,   3.23, -11.12,-479.51, -25.45, -15.02,   8.00,   0.04,   0.02,  32.00, 9.51, 0.00, 0.00, 0.00, 0.00, 1, 1,  7,  40.3884527, -87.5139716,   550.0, 2023,  4, 15, 18, 34, 50,       54,      344, 258,  81,   3.3,   0.9,   3.2, 33,  0, 36,  0,  0, 23,  0,  0,  0,  0, 33,  0,  0, 10,  0,  0,  0,  0,  8,  0, 27,  0,  0, 35,  0,  0,  0,  0,  0, 34,  0,  0
6, 8183, 1,KN4UIR,     4.03, -69,  12, 4,    fast,  -22.63,  90133.00,  976.32,  752.59,  223.41, 34.9, 9.62, 9.62, 3.73,   0.80,  26.55, -10.09,-660.85,   3.11, -53.59,   8.00,   0.04,   0.21,  30.00, 9.51, 0.00, 0.00, 0.00, 0.00, 1, 1,  7,  40.3884527, -87.5139716,   550.0, 2023,  4, 15, 18, 34, 50,       54,      344, 258,  81,   3.3,   0.9,   3.2, 33,  0, 36,  0,  0, 23,  0,  0,  0,  0, 33,  0,  0, 10,  0,  0,  0,  0,  8,  0, 27,  0,  0, 35,  0,  0,  0,  0,  0, 34,  0,  0
6, 8183, 1,KN4UIR,     4.06, -69,   4, 4,    fast,  -22.63,  90133.00,  976.32,  752.59,  223.41, 34.9, 9.62, 9.62, 3.73,   0.80,  26.55, -10.09,-660.85,   3.11, -53.59,   8.00,   0.04,   0.21,  30.00, 9.52, 0.00, 0.00, 0.00, 0.00, 1, 1,  7,  40.3884527, -87.5139716,   550.0, 2023,  4, 15, 18, 34, 50,       54,      344, 258,  81,   3.3,   0.9,   3.2, 33,  0, 36,  0,  0, 23,  0,  0,  0,  0, 33,  0,  0, 10,  0,  0,  0,  0,  8,  0, 27,  0,  0, 35,  0,  0,  0,  0,  0, 34,  0,  0
6, 8183, 1,KN4UIR,     4.14, -69,   6, 4,    fast,  -10.06,  90026.00,  986.12,  762.39,  221.71, 34.9, 9.62, 9.62, 3.73,   7.45, -13.73,  16.16,-705.40, -28.20, -19.96,   8.00,   0.03,   0.17,  29.00, 9.52, 0.00, 0.00, 0.00, 0.00, 1, 1,  7,  40.3884527, -87.5139716,   550.0, 2023,  4, 15, 18, 34, 50,       54,      344, 258,  81,   3.3,   0.9,   3.2, 33,  0, 36,  0,  0, 23,  0,  0,  0,  0, 33,  0,  0, 10,  0,  0,  0,  0,  8,  0, 27,  0,  0, 35,  0,  0,  0,  0,  0, 34,  0,  0
6, 8183, 1,KN4UIR,     4.17, -70,   7, 4,    fast,  -10.06,  90026.00,  986.12,  762.39,  221.71, 34.9, 9.62, 9.62, 3.73,   7.45, -13.73,  16.16,-705.40, -28.20, -19.96,   8.00,   0.03,   0.17,  29.00, 9.52, 0.00, 0.00, 0.00, 0.00, 1, 1,  7,  40.3884527, -87.5139716,   550.0, 2023,  4, 15, 18, 34, 50,       54,      344, 258,  81,   3.3,   0.9,   3.2, 33,  0, 36,  0,  0, 23,  0,  0,  0,  0, 33,  0,  0, 10,  0,  0,  0,  0,  8,  0, 27,  0,  0, 35,  0,  0,  0,  0,  0, 34,  0,  0
6, 8183, 1,KN4UIR,     4.25, -69,  10, 4,    fast,   -1.01,  89794.00, 1007.39,  783.66,  221.04, 34.9, 9.62, 9.62, 3.73,   0.53,   0.25,   4.11,-543.72,  44.80, -17.09,   8.00,   0.04,   0.20,  29.00, 9.52, 0.00, 0.00, 0.00, 0.00, 1, 1,  7,  40.3884527, -87.5139716,   550.0, 2023,  4, 15, 18, 34, 50,       54,      344, 258,  81,   3.3,   0.9,   3.2, 33,  0, 36,  0,  0, 23,  0,  0,  0,  0, 33,  0,  0, 10,  0,  0,  0,  0,  8,  0, 27,  0,  0, 35,  0,  0,  0,  0,  0, 34,  0,  0
6, 8183, 1,KN4UIR,     4.28, -70,   7, 4,    fast,   -1.01,  89794.00, 1007.39,  783.66,  221.04, 34.9, 9.62, 9.62, 3.73,   0.53,   0.25,   4.11,-543.72,  44.80, -17.09,   8.00,   0.04,   0.20,  29.00, 9.51, 0.00, 0.00, 0.00, 0.00, 1, 1,  7,  40.3884527, -87.5139716,   550.0, 2023,  4, 15, 18, 34, 50,       54,      344, 258,  81,   3.3,   0.9,   3.2, 33,  0, 36,  0,  0, 23,  0,  0,  0,  0, 33,  0,  0, 10,  0,  0,  0,  0,  8,  0, 27,  0,  0, 35,  0,  0,  0,  0,  0, 34,  0,  0
6, 8183, 1,KN4UIR,     4.36, -69,   6, 4,    fast,  -10.56,  89680.00, 1017.86,  794.13,  220.35, 34.9, 9.62, 9.62, 3.73,  12.72,   0.45,   3.24,-295.85,  -5.92,  -0.73,   8.00,   0.04,   0.12,  31.00, 9.51, 0.00, 0.00, 0.00, 0.00, 1, 1,  7,  40.3884527, -87.5139716,   550.0, 2023,  4, 15, 18, 34, 50,       54,      344, 258,  81,   3.3,   0.9,   3.2, 33,  0, 36,  0,  0, 23,  0,  0,  0,  0, 33,  0,  0, 10,  0,  0,  0,  0,  8,  0, 27,  0,  0, 35,  0,  0,  0,  0,  0, 34,  0,  0
6, 8183, 1,KN4UIR,     4.39, -67,   9, 4,    fast,  -10.56,  89680.00, 1017.86,  794.13,  220.35, 34.9, 9.62, 9.62, 3.70,  12.72,   0.45,   3.24,-295.85,  -5.92,  -0.73,   8.00,   0.04,   0.12,  31.00, 9.51, 0.00, 0.00, 0.00, 0.00, 1, 1,  7,  40.3884527, -87.5139716,   550.0, 2023,  4, 15, 18, 34, 50,       54,      344, 258,  81,   3.3,   0.9,   3.2, 33,  0, 36,  0,  0, 23,  0,  0,  0,  0, 33,  0,  0, 10,  0,  0,  0,  0,  8,  0, 27,  0,  0, 35,  0,  0,  0,  0,  0, 34,  0,  0
6, 8183, 1,KN4UIR,     4.47, -67,   7, 4,    fast,  -12.07,  89450.00, 1039.02,  815.29,  219.13, 34.9, 9.62, 9.62, 3.70,  -7.44,   9.46, -21.50, 149.85, -74.65, -37.11,   8.00,   0.03,   0.05,  31.00, 9.51, 0.00, 0.00, 0.00, 0.00, 1, 1,  7,  40.3884527, -87.5139716,   550.0, 2023,  4, 15, 18, 34, 50,       54,      344, 258,  81,   3.3,   0.9,   3.2, 33,  0, 36,  0,  0, 23,  0,  0,  0,  0, 33,  0,  0, 10,  0,  0,  0,  0,  8,  0, 27,  0,  0, 35,  0,  0,  0,  0,  0, 34,  0,  0
6, 8183, 1,KN4UIR,     4.50, -68,   7, 4,    fast,  -12.07,  89450.00, 1039.02,  815.29,  219.13, 34.9, 9.62, 9.62, 3.73,  -7.44,   9.46, -21.50, 149.85, -74.65, -37.11,   8.00,   0.03,   0.05,  31.00, 9.52, 0.00, 0.00, 0.00, 0.00, 1, 1,  7,  40.3884527, -87.5139716,   550.0, 2023,  4, 15, 18, 34, 50,       54,      344, 258,  81,   3.3,   0.9,   3.2, 33,  0, 36,  0,  0, 23,  0,  0,  0,  0, 33,  0,  0, 10,  0,  0,  0,  0,  8,  0, 27,  0,  0, 35,  0,  0,  0,  0,  0, 34,  0,  0
6, 8183, 1,KN4UIR,     4.58, -68,   6, 4,    fast,  -16.09,  89093.00, 1071.95,  848.22,  217.66, 34.9, 9.62, 9.62, 3.73,   0.54, -38.70,   5.46, 381.18, -10.99, -45.11,   8.00,   0.04,   0.24,  34.00, 9.52, 0.00, 0.00, 0.00, 0.00, 1, 1,  7,  40.3884527, -87.5139716,   550.0, 2023,  4, 15, 18, 34, 50,       54,      344, 258,  81,   3.3,   0.9,   3.2, 33,  0, 36,  0,  0, 23,  0,  0,  0,  0, 33,  0,  0, 10,  0,  0,  0,  0,  8,  0, 27,  0,  0, 35,  0,  0,  0,  0,  0, 34,  0,  0
6, 8183, 1,KN4UIR,     4.61, -69,   5, 4,    fast,  -16.09,  89093.00, 1071.95,  848.22,  217.66, 34.9, 9.62, 9.62, 3.70,   0.54, -38.70,   5.46, 381.18, -10.99, -45.11,   8.00,   0.04,   0.24,  34.00, 9.51, 0.00, 0.00, 0.00, 0.00, 1, 1,  7,  40.3884527, -87.5139716,   550.0, 2023,  4, 15, 18, 34, 50,       54,      344, 258,  81,   3.3,   0.9,   3.2, 33,  0, 36,  0,  0, 23,  0,  0,  0,  0, 33,  0,  0, 10,  0,  0,  0,  0,  8,  0, 27,  0,  0, 35,  0,  0,  0,  0,  0, 34,  0,  0
6, 8183, 1,KN4UIR,     4.69, -68,   7, 4,    fast,   -8.55,  88726.00, 1105.91,  882.18,  216.34, 34.9, 9.62, 9.62, 3.70,   1.38,  -7.48,  -4.49, 334.30,  56.76, -37.17,   8.00,   0.04,   0.29,  41.00, 9.51, 0.00, 0.00, 0.00, 0.00, 1, 1,  7,  40.3884527, -87.5139716,   550.0, 2023,  4, 15, 18, 34, 50,       54,      344, 258,  81,   3.3,   0.9,   3.2, 33,  0, 36,  0,  0, 23,  0,  0,  0,  0, 33,  0,  0, 10,  0,  0,  0,  0,  8,  0, 27,  0,  0, 35,  0,  0,  0,  0,  0, 34,  0,  0
6, 8183, 1,KN4UIR,     4.72, -69,  13, 4,    fast,   -8.55,  88726.00, 1105.91,  882.18,  216.34, 34.9, 9.62, 9.62, 3.70,   1.38,  -7.48,  -4.49, 334.30,  56.76, -37.17,   8.00,   0.04,   0.29,  41.00, 9.51, 0.00, 0.00, 0.00, 0.00, 1, 1,  7,  40.3884527, -87.5139716,   550.0, 2023,  4, 15, 18, 34, 50,       54,      344, 258,  81,   3.3,   0.9,   3.2, 36,  0, 35,  0,  0, 19,  0,  0,  0,  0, 36,  0,  0,  9,  0,  0, 26,  0,  8,  0, 32,  0,  0, 33,  0,  0,  0,  0,  0, 32,  0,  0
6, 8183, 1,KN4UIR,     4.72, -70,   9, 4,    fast,   -8.55,  88726.00, 1105.91,  882.18,  216.34, 34.9, 9.62, 9.62, 3.70,   1.38,  -7.48,  -4.49, 334.30,  56.76, -37.17,   8.00,   0.04,   0.29,  41.00, 9.51, 0.00, 0.00, 0.00, 0.00, 1, 1,  7,  40.3884527, -87.5139716,   550.0, 2023,  4, 15, 18, 34, 50,       54,      344, 258,  81,   3.3,   0.9,   3.2, 36,  0, 35,  0,  0, 19,  0,  0,  0,  0, 36,  0,  0,  9,  0,  0, 26,  0,  8,  0, 32,  0,  0, 33,  0,  0,  0,  0,  0, 32,  0,  0
6, 8183, 1,KN4UIR,     4.80, -72,   6, 4,    fast,   -8.05,  88575.00, 1119.91,  896.18,  215.38, 34.9, 9.62, 9.62, 3.70,   3.78,  -9.97,   4.53, 414.20,  48.04,  24.54,   8.00,   0.04,   0.27,  47.00, 9.51, 0.00, 0.00, 0.00, 0.00, 1, 1,  7,  40.3884527, -87.5139716,   550.0, 2023,  4, 15, 18, 34, 50,       54,      344, 258,  81,   3.3,   0.9,   3.2, 36,  0, 35,  0,  0, 19,  0,  0,  0,  0, 36,  0,  0,  9,  0,  0, 26,  0,  8,  0, 32,  0,  0, 33,  0,  0,  0,  0,  0, 32,  0,  0
6, 8183, 1,KN4UIR,     4.83, -74,  10, 5,   coast,   -8.05,  88575.00, 1119.91,  896.18,  215.38, 34.9, 9.62, 9.56, 3.71,   3.78,  -9.97,   4.53, 414.20,  48.04,  24.54,   8.00,   0.04,   0.27,  47.00, 9.51, 0.00, 0.00, 0.00, 0.00, 1, 1,  7,  40.3884527, -87.5139716,   550.0, 2023,  4, 15, 18, 34, 50,       54,      344, 258,  81,   3.3,   0.9,   3.2, 36,  0, 35,  0,  0, 19,  0,  0,  0,  0, 36,  0,  0,  9,  0,  0, 26,  0,  8,  0, 32,  0,  0, 33,  0,  0,  0,  0,  0, 32,  0,  0
6, 8183, 1,KN4UIR,     4.91, -75,   6, 5,   coast,  -24.14,  88563.00, 1121.03,  897.30,  213.92, 34.9, 9.62, 9.56, 3.71, -24.47,  -2.00,  -0.88, 219.86,  13.73,  67.57,   8.00,   0.04,   0.23,  55.00, 9.51, 0.00, 0.00, 0.00, 0.00, 1, 1,  7,  40.3884527, -87.5139716,   550.0, 2023,  4, 15, 18, 34, 50,       54,      344, 258,  81,   3.3,   0.9,   3.2, 36,  0, 35,  0,  0, 19,  0,  0,  0,  0, 36,  0,  0,  9,  0,  0, 26,  0,  8,  0, 32,  0,  0, 33,  0,  0,  0,  0,  0, 32,  0,  0
6, 8183, 1,KN4UIR,     4.94, -73,   8, 5,   coast,  -24.14,  88563.00, 1121.03,  897.30,  213.92, 34.9, 9.62, 9.62, 3.70, -24.47,  -2.00,  -0.88, 219.86,  13.73,  67.57,   8.00,   0.04,   0.23,  55.00, 9.50, 0.00, 0.00, 0.00, 0.00, 1, 1,  7,  40.3884527, -87.5139716,   550.0, 2023,  4, 15, 18, 34, 50,       54,      344, 258,  81,   3.3,   0.9,   3.2, 36,  0, 35,  0,  0, 19,  0,  0,  0,  0, 36,  0,  0,  9,  0,  0, 26,  0,  8,  0, 32,  0,  0, 33,  0,  0,  0,  0,  0, 32,  0,  0
6, 8183, 1,KN4UIR,     4.98, -75,   9, 5,   coast,  -24.14,  88563.00, 1121.03,  897.30,  213.92, 34.9, 9.62, 9.62, 3.70, -24.47,  -2.00,  -0.88, 219.86,  13.73,  67.57,   8.00,   0.04,   0.23,  55.00, 9.50, 0.00, 0.00, 0.00, 0.00, 1, 1,  8,  40.3882861, -87.5144400,   752.0, 2023,  4, 15, 18, 34, 51,       97,      551, 252,  80,   2.2,   0.9,   2.0, 36,  0, 35,  0,  0, 19,  0,  0,  0,  0, 36,  0,  0,  9,  0,  0, 26,  0,  8,  0, 32,  0,  0, 33,  0,  0,  0,  0,  0, 32,  0,  0
6, 8183, 1,KN4UIR,     5.02, -74,   6, 5,   coast,  -39.73,  88578.00, 1119.64,  895.91,  211.49, 34.9, 9.62, 9.62, 3.70, -20.42,  -9.57,  -3.95, -57.62, -36.74,   0.92,   8.00,   0.04,   0.13,  57.00, 9.50, 0.00, 0.00, 0.00, 0.00, 1, 1,  8,  40.3882861, -87.5144400,   752.0, 2023,  4, 15, 18, 34, 51,       97,      551, 252,  80,   2.2,   0.9,   2.0, 36,  0, 35,  0,  0, 19,  0,  0,  0,  0, 36,  0,  0,  9,  0,  0, 26,  0,  8,  0, 32,  0,  0, 33,  0,  0,  0,  0,  0, 32,  0,  0
6, 8183, 1,KN4UIR,     5.05, -74,   6, 5,   coast,  -39.73,  88578.00, 1119.64,  895.91,  211.49, 34.9, 9.62, 9.62, 3.74, -20.42,  -9.57,  -3.95, -57.62, -36.74,   0.92,   8.00,   0.04,   0.13,  57.00, 9.51, 0.00, 0.00, 0.00, 0.00, 1, 1,  8,  40.3882861, -87.5144400,   752.0, 2023,  4, 15, 18, 34, 51,       97,      551, 252,  80,   2.2,   0.9,   2.0, 36,  0, 35,  0,  0, 19,  0,  0,  0,  0, 36,  0,  0,  9,  0,  0, 26,  0,  8,  0, 32,  0,  0, 33,  0,  0,  0,  0,  0, 32,  0,  0
6, 8183, 1,KN4UIR,     5.13, -76,   9, 5,   coast,  -41.24,  88151.00, 1159.35,  935.62,  208.45, 34.9, 9.62, 9.62, 3.74, -33.59, -17.32,   1.69,-231.39,   1.71, -59.45,   8.00,   0.04,   0.17,  52.00, 9.51, 0.00, 0.00, 0.00, 0.00, 1, 1,  8,  40.3882861, -87.5144400,   752.0, 2023,  4, 15, 18, 34, 51,       97,      551, 252,  80,   2.2,   0.9,   2.0, 36,  0, 35,  0,  0, 19,  0,  0,  0,  0, 36,  0,  0,  9,  0,  0, 26,  0,  8,  0, 32,  0,  0, 33,  0,  0,  0,  0,  0, 32,  0,  0
6, 8183, 1,KN4UIR,     5.16, -74,   7, 5,   coast,  -41.24,  88151.00, 1159.35,  935.62,  208.45, 34.9, 9.62, 9.56, 3.71, -33.59, -17.32,   1.69,-231.39,   1.71, -59.45,   8.00,   0.04,   0.17,  52.00, 9.51, 0.00, 0.00, 0.00, 0.00, 1, 1,  8,  40.3882861, -87.5144400,   752.0, 2023,  4, 15, 18, 34, 51,       97,      551, 252,  80,   2.2,   0.9,   2.0, 36,  0, 35,  0,  0, 19,  0,  0,  0,  0, 36,  0,  0,  9,  0,  0, 26,  0,  8,  0, 32,  0,  0, 33,  0,  0,  0,  0,  0, 32,  0,  0
6, 8183, 1,KN4UIR,     5.24, -76,   6, 5,   coast,  -39.23,  87983.00, 1175.01,  951.28,  205.27, 34.9, 9.62, 9.56, 3.71, -31.82,  30.14, -14.36,-220.71, -22.22,  19.78,   8.00,   0.04,   0.30,  50.00, 9.51, 0.00, 0.00, 0.00, 0.00, 1, 1,  8,  40.3882861, -87.5144400,   752.0, 2023,  4, 15, 18, 34, 51,       97,      551, 252,  80,   2.2,   0.9,   2.0, 36,  0, 35,  0,  0, 19,  0,  0,  0,  0, 36,  0,  0,  9,  0,  0, 26,  0,  8,  0, 32,  0,  0, 33,  0,  0,  0,  0,  0, 32,  0,  0
6, 8183, 1,KN4UIR,     5.27, -75,   5, 5,   coast,  -39.23,  87983.00, 1175.01,  951.28,  205.27, 34.9, 9.62, 9.62, 3.74, -31.82,  30.14, -14.36,-220.71, -22.22,  19.78,   8.00,   0.04,   0.30,  50.00, 9.51, 0.00, 0.00, 0.00, 0.00, 1, 1,  8,  40.3882861, -87.5144400,   752.0, 2023,  4, 15, 18, 34, 51,       97,      551, 252,  80,   2.2,   0.9,   2.0, 36,  0, 35,  0,  0, 19,  0,  0,  0,  0, 36,  0,  0,  9,  0,  0, 26,  0,  8,  0, 32,  0,  0, 33,  0,  0,  0,  0,  0, 32,  0,  0
6, 8183, 1,KN4UIR,     5.35, -77,   6, 5,   coast,  -56.33,  88102.00, 1163.91,  940.18,  201.47, 34.9, 9.62, 9.62, 3.74, -31.60, -15.60,  14.76, 709.74,  -8.97,  32.11,   8.00,   0.03,   0.02,  49.00, 9.51, 0.00, 0.00, 0.00, 0.00, 1, 1,  8,  40.3882861, -87.5144400,   752.0, 2023,  4, 15, 18, 34, 51,       97,      551, 252,  80,   2.2,   0.9,   2.0, 36,  0, 35,  0,  0, 19,  0,  0,  0,  0, 36,  0,  0,  9,  0,  0, 26,  0,  8,  0, 32,  0,  0, 33,  0,  0,  0,  0,  0, 32,  0,  0
6, 8183, 1,KN4UIR,     5.38, -75,   6, 5,   coast,  -56.33,  88102.00, 1163.91,  940.18,  201.47, 34.9, 9.62, 9.62, 3.74, -31.60, -15.60,  14.76, 709.74,  -8.97,  32.11,   8.00,   0.03,   0.02,  49.00, 9.52, 0.00, 0.00, 0.00, 0.00, 1, 1,  8,  40.3882861, -87.5144400,   752.0, 2023,  4, 15, 18, 34, 51,       97,      551, 252,  80,   2.2,   0.9,   2.0, 36,  0, 35,  0,  0, 19,  0,  0,  0,  0, 36,  0,  0,  9,  0,  0, 26,  0,  8,  0, 32,  0,  0, 33,  0,  0,  0,  0,  0, 32,  0,  0
6, 8183, 1,KN4UIR,     5.46, -79,   6, 5,   coast,  -46.27,  88117.00, 1162.51,  938.78,  197.42, 34.9, 9.62, 9.62, 3.74, -38.29,  13.49,  -3.77, 808.56, -86.31, -63.60,   8.00,   0.04,  -0.06,  50.00, 9.52, 0.00, 0.00, 0.00, 0.00, 1, 1,  8,  40.3882861, -87.5144400,   752.0, 2023,  4, 15, 18, 34, 51,       97,      551, 252,  80,   2.2,   0.9,   2.0, 36,  0, 35,  0,  0, 19,  0,  0,  0,  0, 36,  0,  0,  9,  0,  0, 26,  0,  8,  0, 32,  0,  0, 33,  0,  0,  0,  0,  0, 32,  0,  0
6, 8183, 1,KN4UIR,     5.49, -78,   6, 5,   coast,  -46.27,  88117.00, 1162.51,  938.78,  197.42, 34.9, 9.62, 9.62, 3.73, -38.29,  13.49,  -3.77, 808.56, -86.31, -63.60,   8.00,   0.04,  -0.06,  50.00, 9.52, 0.00, 0.00, 0.00, 0.00, 1, 1,  8,  40.3882861, -87.5144400,   752.0, 2023,  4, 15, 18, 34, 51,       97,      551, 252,  80,   2.2,   0.9,   2.0, 36,  0, 35,  0,  0, 19,  0,  0,  0,  0, 36,  0,  0,  9,  0,  0, 26,  0,  8,  0, 32,  0,  0, 33,  0,  0,  0,  0,  0, 32,  0,  0
6, 8183, 1,KN4UIR,     5.57, -77,  14, 5,   coast,  -54.31,  87853.00, 1187.15,  963.42,  193.83, 34.9, 9.62, 9.62, 3.73, -39.92,   9.71,   6.11, 860.07, -69.95, -54.20,   8.00,   0.04,   0.09,  60.00, 9.52, 0.00, 0.00, 0.00, 0.00, 1, 1,  8,  40.3882861, -87.5144400,   752.0, 2023,  4, 15, 18, 34, 51,       97,      551, 252,  80,   2.2,   0.9,   2.0, 36,  0, 35,  0,  0, 19,  0,  0,  0,  0, 36,  0,  0,  9,  0,  0, 26,  0,  8,  0, 32,  0,  0, 33,  0,  0,  0,  0,  0, 32,  0,  0
6, 8183, 1,KN4UIR,     5.60, -78,   9, 5,   coast,  -54.31,  87853.00, 1187.15,  963.42,  193.83, 34.9, 9.62, 9.62, 3.71, -39.92,   9.71,   6.11, 860.07, -69.95, -54.20,   8.00,   0.04,   0.09,  60.00, 9.50, 0.00, 0.00, 0.00, 0.00, 1, 1,  8,  40.3882861, -87.5144400,   752.0, 2023,  4, 15, 18, 34, 51,       97,      551, 252,  80,   2.2,   0.9,   2.0, 36,  0, 35,  0,  0, 19,  0,  0,  0,  0, 36,  0,  0,  9,  0,  0, 26,  0,  8,  0, 32,  0,  0, 33,  0,  0,  0,  0,  0, 32,  0,  0
6, 8183, 1,KN4UIR,     5.68, -77,   7, 5,   coast,  -51.30,  87728.00, 1198.84,  975.11,  190.29, 34.9, 9.62, 9.62, 3.71, -33.16,  -6.65,   7.12, 705.65,-128.79, -96.62,   8.00,   0.03,   0.12,  57.00, 9.50, 0.00, 0.00, 0.00, 0.00, 1, 1,  8,  40.3882861, -87.5144400,   752.0, 2023,  4, 15, 18, 34, 51,       97,      551, 252,  80,   2.2,   0.9,   2.0, 36,  0, 35,  0,  0, 19,  0,  0,  0,  0, 36,  0,  0,  9,  0,  0, 26,  0,  8,  0, 32,  0,  0, 33,  0,  0,  0,  0,  0, 32,  0,  0
6, 8183, 1,KN4UIR,     5.71, -76,   6, 5,   coast,  -51.30,  87728.00, 1198.84,  975.11,  190.29, 34.9, 9.62, 9.62, 3.74, -33.16,  -6.65,   7.12, 705.65,-128.79, -96.62,   8.00,   0.03,   0.12,  57.00, 9.51, 0.00, 0.00, 0.00, 0.00, 1, 1,  8,  40.3882861, -87.5144400,   752.0, 2023,  4, 15, 18, 34, 51,       97,      551, 252,  80,   2.2,   0.9,   2.0, 36,  0, 35,  0,  0, 19,  0,  0,  0,  0, 36,  0,  0,  9,  0,  0, 26,  0,  8,  0, 32,  0,  0, 33,  0,  0,  0,  0,  0, 32,  0,  0
6, 8183, 1,KN4UIR,     5.79, -79,  12, 5,   coast,  -46.27,  87585.00, 1212.22,  988.49,  186.55, 34.9, 9.62, 9.62, 3.74, -39.20, -21.49,  19.15, 997.47,-104.86, -96.50,   8.00,   0.04,   0.07,  45.00, 9.51, 0.00, 0.00, 0.00, 0.00, 1, 1,  8,  40.3882861, -87.5144400,   752.0, 2023,  4, 15, 18, 34, 51,       97,      551, 252,  80,   2.2,   0.9,   2.0, 36,  0, 35,  0,  0, 19,  0,  0,  0,  0, 36,  0,  0,  9,  0,  0, 26,  0,  8,  0, 32,  0,  0, 33,  0,  0,  0,  0,  0, 32,  0,  0
