#version,serial,flight,call,time,state,state_name,acceleration,pressure,altitude,height,speed,temperature,drogue_voltage,main_voltage,battery_voltage,accel_x,accel_y,accel_z,gyro_roll,gyro_pitch,gyro_yaw,mag_x,mag_y,mag_z,tilt,pyro,igniter_a,igniter_b,igniter_c,igniter_d,connected,locked,nsat,latitude,longitude,altitude,year,month,day,hour,minute,second,pad_dist,pad_range,pad_az,pad_el,pdop,hdop,vdop,sat01,sat02,sat03,sat04,sat05,sat06,sat07,sat08,sat09,sat10,sat11,sat12,sat13,sat14,sat15,sat16,sat17,sat18,sat19,sat20,sat21,sat22,sat23,sat24,sat25,sat26,sat27,sat28,sat29,sat30,sat31,sat32
6, 8183, 2,KN4UIR,    -0.30, 3,   boost,   -0.00, 100525.00,   66.81,    0.00,    0.00, 20.6, 9.63, 0.00, 4.03,   9.90,  -0.24,   0.06,  -0.85,  -0.08,  -0.08,   6.91,   0.01,   3.04,   1.62, 9.53, 0.00, 0.00, 0.00, 0.00, 1, 1, 10,  40.3886847, -87.5132139,   220.0, 2023, 11, 12, 16,  9,  7,        0,        0,   0,   0,   1.5,   0.8,   1.3,  0, 35,  0,  0,  0,  0,  0,  0,  0, 26,  0, 27,  0,  0,  0,  0,  0,  0,  0,  0, 29,  0, 21, 30, 27,  0,  0, 17,  0,  0, 29, 31
6, 8183, 2,KN4UIR,    -0.29, 3,   boost,    0.50, 100527.00,   66.64,   -0.17,    0.00, 20.6, 9.63, 0.00, 4.03,   9.83,  -0.27,   0.03,  -0.72,  -0.08,   0.04,   6.91,   0.01,   3.04,   1.62, 9.53, 0.00, 0.00, 0.00, 0.00, 1, 1, 10,  40.3886847, -87.5132139,   220.0, 2023, 11, 12, 16,  9,  7,        0,        0,   0,   0,   1.5,   0.8,   1.3,  0, 35,  0,  0,  0,  0,  0,  0,  0, 26,  0, 27,  0,  0,  0,  0,  0,  0,  0,  0, 29,  0, 21, 30, 27,  0,  0, 17,  0,  0, 29, 31
6, 8183, 2,KN4UIR,    -0.28, 3,   boost,   -0.00, 100529.00,   66.47,   -0.34,    0.00, 20.6, 9.63, 0.00, 4.03,   9.88,  -0.23,   0.05,  -0.66,  -0.08,  -0.02,   6.91,   0.01,   3.04,   1.62, 9.53, 0.00, 0.00, 0.00, 0.00, 1, 1, 10,  40.3886847, -87.5132139,   220.0, 2023, 11, 12, 16,  9,  7,        0,        0,   0,   0,   1.5,   0.8,   1.3,  0, 35,  0,  0,  0,  0,  0,  0,  0, 26,  0, 27,  0,  0,  0,  0,  0,  0,  0,  0, 29,  0, 21, 30, 27,  0,  0, 17,  0,  0, 29, 31
6, 8183, 2,KN4UIR,    -0.27, 3,   boost,   -0.00, 100525.00,   66.81,    0.00,    0.00, 20.6, 9.63, 0.00, 4.03,   9.82,  -0.22,   0.06,  -0.60,  -0.08,  -0.02,   6.91,   0.01,   3.04,   1.62, 9.53, 0.00, 0.00, 0.00, 0.00, 1, 1, 10,  40.3886847, -87.5132139,   220.0, 2023, 11, 12, 16,  9,  7,        0,        0,   0,   0,   1.5,   0.8,   1.3,  0, 35,  0,  0,  0,  0,  0,  0,  0, 26,  0, 27,  0,  0,  0,  0,  0,  0,  0,  0, 29,  0, 21, 30, 27,  0,  0, 17,  0,  0, 29, 31
6, 8183, 2,KN4UIR,    -0.26, 3,   boost,   -0.50, 100533.00,   66.14,   -0.67,    0.01, 20.6, 9.63, 0.00, 4.03,   9.83,  -0.29,   0.01,  -0.78,  -0.08,  -0.02,   6.91,   0.01,   3.04,   1.62, 9.53, 0.00, 0.00, 0.00, 0.00, 1, 1, 10,  40.3886847, -87.5132139,   220.0, 2023, 11, 12, 16,  9,  7,        0,        0,   0,   0,   1.5,   0.8,   1.3,  0, 35,  0,  0,  0,  0,  0,  0,  0, 26,  0, 27,  0,  0,  0,  0,  0,  0,  0,  0, 29,  0, 21, 30, 27,  0,  0, 17,  0,  0, 29, 31
6, 8183, 2,KN4UIR,    -0.25, 3,   boost,    0.50, 100528.00,   66.56,   -0.25,    0.01, 20.6, 9.63, 0.00, 4.03,   9.85,  -0.30,   0.04,  -0.91,   0.04,   0.04,   6.91,   0.01,   3.04,   1.62, 9.53, 0.00, 0.00, 0.00, 0.00, 1, 1, 10,  40.3886847, -87.5132139,   220.0, 2023, 11, 12, 16,  9,  7,        0,        0,   0,   0,   1.5,   0.8,   1.3,  0, 35,  0,  0,  0,  0,  0,  0,  0, 26,  0, 27,  0,  0,  0,  0,  0,  0,  0,  0, 29,  0, 21, 30, 27,  0,  0, 17,  0,  0, 29, 31
6, 8183, 2,KN4UIR,    -0.24, 3,   boost,    2.01, 100527.00,   66.64,   -0.17,    0.01, 20.6, 9.63, 0.00, 4.03,   9.86,  -0.28,   0.09,  -0.91,  -0.02,   0.10,   6.91,   0.01,   3.04,   1.62, 9.53, 0.00, 0.00, 0.00, 0.00, 1, 1, 10,  40.3886847, -87.5132139,   220.0, 2023, 11, 12, 16,  9,  7,        0,        0,   0,   0,   1.5,   0.8,   1.3,  0, 35,  0,  0,  0,  0,  0,  0,  0, 26,  0, 27,  0,  0,  0,  0,  0,  0,  0,  0, 29,  0, 21, 30, 27,  0,  0, 17,  0,  0, 29, 31
6, 8183, 2,KN4UIR,    -0.23, 3,   boost,   -0.50, 100534.00,   66.05,   -0.75,    0.01, 20.6, 9.63, 0.00, 4.03,   9.83,  -0.25,   0.07,  -0.91,  -0.02,  -0.02,   6.91,   0.01,   3.04,   1.62, 9.53, 0.00, 0.00, 0.00, 0.00, 1, 1, 10,  40.3886847, -87.5132139,   220.0, 2023, 11, 12, 16,  9,  7,        0,        0,   0,   0,   1.5,   0.8,   1.3,  0, 35,  0,  0,  0,  0,  0,  0,  0, 26,  0, 27,  0,  0,  0,  0,  0,  0,  0,  0, 29,  0, 21, 30, 27,  0,  0, 17,  0,  0, 29, 31
6, 8183, 2,KN4UIR,    -0.22, 3,   boost,   -1.51, 100528.00,   66.56,   -0.25,    0.01, 20.6, 9.63, 0.00, 4.03,   9.84,  -0.25,   0.00,  -0.72,  -0.02,  -0.02,   6.91,   0.01,   3.04,   1.62, 9.53, 0.00, 0.00, 0.00, 0.00, 1, 1, 10,  40.3886847, -87.5132139,   220.0, 2023, 11, 12, 16,  9,  7,        0,        0,   0,   0,   1.5,   0.8,   1.3,  0, 35,  0,  0,  0,  0,  0,  0,  0, 26,  0, 27,  0,  0,  0,  0,  0,  0,  0,  0, 29,  0, 21, 30, 27,  0,  0, 17,  0,  0, 29, 31
6, 8183, 2,KN4UIR,    -0.21, 3,   boost,   -0.50, 100522.00,   67.06,    0.25,    0.01, 20.6, 9.63, 0.00, 4.03,   9.90,  -0.26,  -0.02,  -0.66,   0.04,  -0.02,   6.91,   0.01,   3.04,   1.62, 9.53, 0.00, 0.00, 0.00, 0.00, 1, 1, 10,  40.3886847, -87.5132139,   220.0, 2023, 11, 12, 16,  9,  7,        0,        0,   0,   0,   1.5,   0.8,   1.3,  0, 35,  0,  0,  0,  0,  0,  0,  0, 26,  0, 27,  0,  0,  0,  0,  0,  0,  0,  0, 29,  0, 21, 30, 27,  0,  0, 17,  0,  0, 29, 31
6, 8183, 2,KN4UIR,    -0.20, 3,   boost,   -0.50, 100531.00,   66.30,   -0.50,    0.00, 20.6, 9.63, 0.00, 4.03,   9.89,  -0.24,   0.11,  -0.48,   0.04,   0.04,   6.91,   0.01,   3.04,   1.62, 9.53, 0.00, 0.00, 0.00, 0.00, 1, 1, 10,  40.3886847, -87.5132139,   220.0, 2023, 11, 12, 16,  9,  7,        0,        0,   0,   0,   1.5,   0.8,   1.3,  0, 35,  0,  0,  0,  0,  0,  0,  0, 26,  0, 27,  0,  0,  0,  0,  0,  0,  0,  0, 29,  0, 21, 30, 27,  0,  0, 17,  0,  0, 29, 31
6, 8183, 2,KN4UIR,    -0.19, 3,   boost,   -0.50, 100534.00,   66.05,   -0.75,    0.00, 20.6, 9.63, 0.00, 4.03,   9.87,  -0.27,   0.09,  -0.54,  -0.02,  -0.08,   6.91,   0.01,   3.04,   1.62, 9.53, 0.00, 0.00, 0.00, 0.00, 1, 1, 10,  40.3886847, -87.5132139,   220.0, 2023, 11, 12, 16,  9,  7,        0,        0,   0,   0,   1.5,   0.8,   1.3,  0, 35,  0,  0,  0,  0,  0,  0,  0, 26,  0, 27,  0,  0,  0,  0,  0,  0,  0,  0, 29,  0, 21, 30, 27,  0,  0, 17,  0,  0, 29, 31
6, 8183, 2,KN4UIR,    -0.18, 3,   boost,   -1.01, 100520.00,   67.23,    0.42,    0.00, 20.6, 9.63, 0.00, 4.03,   9.91,  -0.22,   0.02,  -0.23,   0.04,  -0.02,   6.91,   0.01,   3.04,   1.62, 9.53, 0.00, 0.00, 0.00, 0.00, 1, 1, 10,  40.3886847, -87.5132139,   220.0, 2023, 11, 12, 16,  9,  7,        0,        0,   0,   0,   1.5,   0.8,   1.3,  0, 35,  0,  0,  0,  0,  0,  0,  0, 26,  0, 27,  0,  0,  0,  0,  0,  0,  0,  0, 29,  0, 21, 30, 27,  0,  0, 17,  0,  0, 29, 31
6, 8183, 2,KN4UIR,    -0.17, 3,   boost,   -0.00, 100525.00,   66.81,    0.00,    0.01, 20.6, 9.63, 0.00, 4.03,   9.85,  -0.24,  -0.02,   0.07,  -0.08,   0.04,   6.91,   0.01,   3.04,   1.62, 9.53, 0.00, 0.00, 0.00, 0.00, 1, 1, 10,  40.3886847, -87.5132139,   220.0, 2023, 11, 12, 16,  9,  7,        0,        0,   0,   0,   1.5,   0.8,   1.3,  0, 35,  0,  0,  0,  0,  0,  0,  0, 26,  0, 27,  0,  0,  0,  0,  0,  0,  0,  0, 29,  0, 21, 30, 27,  0,  0, 17,  0,  0, 29, 31
6, 8183, 2,KN4UIR,    -0.16, 3,   boost,   -0.00, 100523.00,   66.98,    0.17,    0.05, 20.6, 9.63, 0.00, 4.03,   9.88,  -0.23,  -0.07,   0.50,   0.04,  -0.02,   6.91,   0.01,   3.04,   1.62, 9.53, 0.00, 0.00, 0.00, 0.00, 1, 1, 10,  40.3886847, -87.5132139,   220.0, 2023, 11, 12, 16,  9,  7,        0,        0,   0,   0,   1.5,   0.8,   1.3,  0, 35,  0,  0,  0,  0,  0,  0,  0, 26,  0, 27,  0,  0,  0,  0,  0,  0,  0,  0, 29,  0, 21, 30, 27,  0,  0, 17,  0,  0, 29, 31
6, 8183, 2,KN4UIR,    -0.15, 3,   boost,    1.51, 100527.00,   66.64,   -0.17,    0.14, 20.6, 9.63, 0.00, 4.03,   9.89,  -0.23,   0.02,   0.99,   0.04,  -0.02,   6.91,   0.01,   3.04,   1.62, 9.53, 0.00, 0.00, 0.00, 0.00, 1, 1, 10,  40.3886847, -87.5132139,   220.0, 2023, 11, 12, 16,  9,  7,        0,        0,   0,   0,   1.5,   0.8,   1.3,  0, 35,  0,  0,  0,  0,  0,  0,  0, 26,  0, 27,  0,  0,  0,  0,  0,  0,  0,  0, 29,  0, 21, 30, 27,  0,  0, 17,  0,  0, 29, 31
6, 8183, 2,KN4UIR,    -0.14, 3,   boost,   22.63, 100537.00,   65.80,   -1.01,    0.29, 20.6, 9.63, 0.00, 4.03,  10.07,  -0.13,  -0.06,   1.54,   0.04,   0.04,   6.91,   0.01,   3.04,   1.62, 9.53, 0.00, 0.00, 0.00, 0.00, 1, 1, 10,  40.3886847, -87.5132139,   220.0, 2023, 11, 12, 16,  9,  7,        0,        0,   0,   0,   1.5,   0.8,   1.3,  0, 35,  0,  0,  0,  0,  0,  0,  0, 26,  0, 27,  0,  0,  0,  0,  0,  0,  0,  0, 29,  0, 21, 30, 27,  0,  0, 17,  0,  0, 29, 31
6, 8183, 2,KN4UIR,    -0.13, 3,   boost,   35.20, 100533.00,   66.14,   -0.67,    0.50, 20.6, 9.63, 0.00, 4.03,  11.57,   0.03,  -0.32,   2.33,  -0.08,  -0.02,   6.91,   0.01,   3.04,   1.62, 9.53, 0.00, 0.00, 0.00, 0.00, 1, 1, 10,  40.3886847, -87.5132139,   220.0, 2023, 11, 12, 16,  9,  7,        0,        0,   0,   0,   1.5,   0.8,   1.3,  0, 35,  0,  0,  0,  0,  0,  0,  0, 26,  0, 27,  0,  0,  0,  0,  0,  0,  0,  0, 29,  0, 21, 30, 27,  0,  0, 17,  0,  0, 29, 31
6, 8183, 2,KN4UIR,    -0.12, 3,   boost,   33.19, 100537.00,   65.80,   -1.01,    0.78, 20.6, 9.63, 0.00, 4.03,  26.71,  -2.13,  -0.34,   3.06,  -0.69,   0.04,   6.91,   0.01,   3.04,   1.62, 9.53, 0.00, 0.00, 0.00, 0.00, 1, 1, 10,  40.3886847, -87.5132139,   220.0, 2023, 11, 12, 16,  9,  7,        0,        0,   0,   0,   1.5,   0.8,   1.3,  0, 35,  0,  0,  0,  0,  0,  0,  0, 26,  0, 27,  0,  0,  0,  0,  0,  0,  0,  0, 29,  0, 21, 30, 27,  0,  0, 17,  0,  0, 29, 31
6, 8183, 2,KN4UIR,    -0.11, 3,   boost,   33.19, 100516.00,   67.56,    0.75,    1.12, 20.6, 9.63, 0.00, 4.03,  41.13,  -3.73,  -1.11,   6.24,  -1.18,   1.87,   6.91,   0.01,   3.04,   1.62, 9.53, 0.00, 0.00, 0.00, 0.00, 1, 1, 10,  40.3886847, -87.5132139,   220.0, 2023, 11, 12, 16,  9,  7,        0,        0,   0,   0,   1.5,   0.8,   1.3,  0, 35,  0,  0,  0,  0,  0,  0,  0, 26,  0, 27,  0,  0,  0,  0,  0,  0,  0,  0, 29,  0, 21, 30, 27,  0,  0, 17,  0,  0, 29, 31
6, 8183, 2,KN4UIR,    -0.10, 3,   boost,   37.72, 100495.00,   69.32,    2.51,    1.49, 20.6, 9.63, 0.00, 4.03,  43.77,  -2.58,   0.34,  12.46,   1.75,  -0.02,   6.91,   0.01,   3.04,   1.62, 9.53, 0.00, 0.00, 0.00, 0.00, 1, 1, 10,  40.3886847, -87.5132139,   220.0, 2023, 11, 12, 16,  9,  7,        0,        0,   0,   0,   1.5,   0.8,   1.3,  0, 35,  0,  0,  0,  0,  0,  0,  0, 26,  0, 27,  0,  0,  0,  0,  0,  0,  0,  0, 29,  0, 21, 30, 27,  0,  0, 17,  0,  0, 29, 31
6, 8183, 2,KN4UIR,    -0.09, 3,   boost,   42.75, 100511.00,   67.98,    1.17,    1.92, 20.6, 9.63, 0.00, 4.03,  40.53,   2.62,  -1.31,  10.45,  -1.12,  -0.27,   6.91,   0.01,   3.04,   1.62, 9.53, 0.00, 0.00, 0.00, 0.00, 1, 1, 10,  40.3886847, -87.5132139,   220.0, 2023, 11, 12, 16,  9,  7,        0,        0,   0,   0,   1.5,   0.8,   1.3,  0, 35,  0,  0,  0,  0,  0,  0,  0, 26,  0, 27,  0,  0,  0,  0,  0,  0,  0,  0, 29,  0, 21, 30, 27,  0,  0, 17,  0,  0, 29, 31
6, 8183, 2,KN4UIR,    -0.08, 3,   boost,   50.29, 100509.00,   68.15,    1.34,    2.38, 20.6, 9.63, 0.00, 4.03,  45.26,  -1.25,   0.89,   7.76,   0.29,   0.10,   6.91,   0.01,   3.04,   1.62, 9.53, 0.00, 0.00, 0.00, 0.00, 1, 1, 10,  40.3886847, -87.5132139,   220.0, 2023, 11, 12, 16,  9,  7,        0,        0,   0,   0,   1.5,   0.8,   1.3,  0, 35,  0,  0,  0,  0,  0,  0,  0, 26,  0, 27,  0,  0,  0,  0,  0,  0,  0,  0, 29,  0, 21, 30, 27,  0,  0, 17,  0,  0, 29, 31
6, 8183, 2,KN4UIR,    -0.07, 3,   boost,   55.32, 100505.00,   68.48,    1.68,    2.90, 20.6, 9.63, 0.00, 4.03,  51.31,  -0.27,  -0.58,   1.90,   0.29,   0.35,   6.91,   0.01,   3.04,   1.62, 9.53, 0.00, 0.00, 0.00, 0.00, 1, 1, 10,  40.3886847, -87.5132139,   220.0, 2023, 11, 12, 16,  9,  7,        0,        0,   0,   0,   1.5,   0.8,   1.3,  0, 35,  0,  0,  0,  0,  0,  0,  0, 26,  0, 27,  0,  0,  0,  0,  0,  0,  0,  0, 29,  0, 21, 30, 27,  0,  0, 17,  0,  0, 29, 31
6, 8183, 2,KN4UIR,    -0.06, 3,   boost,   62.36, 100495.00,   69.32,    2.51,    3.46, 20.6, 9.63, 0.00, 4.03,  58.44,   0.06,  -0.46,  -1.21,  -0.69,  -0.81,   6.91,   0.01,   3.04,   1.62, 9.53, 0.00, 0.00, 0.00, 0.00, 1, 1, 10,  40.3886847, -87.5132139,   220.0, 2023, 11, 12, 16,  9,  7,        0,        0,   0,   0,   1.5,   0.8,   1.3,  0, 35,  0,  0,  0,  0,  0,  0,  0, 26,  0, 27,  0,  0,  0,  0,  0,  0,  0,  0, 29,  0, 21, 30, 27,  0,  0, 17,  0,  0, 29, 31
6, 8183, 2,KN4UIR,    -0.05, 3,   boost,   62.86, 100491.00,   69.66,    2.85,    4.05, 20.6, 9.63, 0.00, 4.03,  63.84,  -1.14,  -0.68,  -1.03,   0.35,   1.20,   6.91,   0.01,   3.04,   1.62, 9.53, 0.00, 0.00, 0.00, 0.00, 1, 1, 10,  40.3886847, -87.5132139,   220.0, 2023, 11, 12, 16,  9,  7,        0,        0,   0,   0,   1.5,   0.8,   1.3,  0, 35,  0,  0,  0,  0,  0,  0,  0, 26,  0, 27,  0,  0,  0,  0,  0,  0,  0,  0, 29,  0, 21, 30, 27,  0,  0, 17,  0,  0, 29, 31
6, 8183, 2,KN4UIR,    -0.04, 3,   boost,   63.37, 100489.00,   69.82,    3.02,    4.66, 20.6, 9.63, 0.00, 4.03,  68.92,  -0.50,  -0.74,   5.32,   1.75,   1.87,   6.91,   0.01,   3.04,   1.62, 9.53, 0.00, 0.00, 0.00, 0.00, 1, 1, 10,  40.3886847, -87.5132139,   220.0, 2023, 11, 12, 16,  9,  7,        0,        0,   0,   0,   1.5,   0.8,   1.3,  0, 35,  0,  0,  0,  0,  0,  0,  0, 26,  0, 27,  0,  0,  0,  0,  0,  0,  0,  0, 29,  0, 21, 30, 27,  0,  0, 17,  0,  0, 29, 31
6, 8183, 2,KN4UIR,    -0.03, 3,   boost,   62.36, 100486.00,   70.08,    3.27,    5.27, 20.6, 9.63, 0.00, 4.03,  71.56,  -1.00,   0.62,   6.36,   2.73,   1.38,   6.91,   0.01,   3.04,   1.62, 9.53, 0.00, 0.00, 0.00, 0.00, 1, 1, 10,  40.3886847, -87.5132139,   220.0, 2023, 11, 12, 16,  9,  7,        0,        0,   0,   0,   1.5,   0.8,   1.3,  0, 35,  0,  0,  0,  0,  0,  0,  0, 26,  0, 27,  0,  0,  0,  0,  0,  0,  0,  0, 29,  0, 21, 30, 27,  0,  0, 17,  0,  0, 29, 31
6, 8183, 2,KN4UIR,    -0.02, 3,   boost,   59.85, 100486.00,   70.08,    3.27,    5.87, 20.6, 9.63, 0.00, 4.03,  70.14,  -1.23,  -0.68,   6.85,   0.41,   0.77,   6.91,   0.01,   3.04,   1.62, 9.53, 0.00, 0.00, 0.00, 0.00, 1, 1, 10,  40.3886847, -87.5132139,   220.0, 2023, 11, 12, 16,  9,  7,        0,        0,   0,   0,   1.5,   0.8,   1.3,  0, 35,  0,  0,  0,  0,  0,  0,  0, 26,  0, 27,  0,  0,  0,  0,  0,  0,  0,  0, 29,  0, 21, 30, 27,  0,  0, 17,  0,  0, 29, 31
6, 8183, 2,KN4UIR,    -0.01, 3,   boost,   54.82, 100483.00,   70.33,    3.52,    6.46, 20.6, 9.63, 0.00, 4.03,  70.21,  -1.03,   0.71,   7.46,   0.47,   2.42,   6.91,   0.01,   3.04,   1.62, 9.53, 0.00, 0.00, 0.00, 0.00, 1, 1, 10,  40.3886847, -87.5132139,   220.0, 2023, 11, 12, 16,  9,  7,        0,        0,   0,   0,   1.5,   0.8,   1.3,  0, 35,  0,  0,  0,  0,  0,  0,  0, 26,  0, 27,  0,  0,  0,  0,  0,  0,  0,  0, 29,  0, 21, 30, 27,  0,  0, 17,  0,  0, 29, 31
6, 8183, 2,KN4UIR,     0.00, 3,   boost,   58.34, 100482.00,   70.41,    3.60,    7.05, 20.6, 9.63, 0.00, 4.03,  68.15,   0.32,   0.83,  11.61,   1.63,  -0.08,   6.91,   0.01,   3.04,   1.62, 9.53, 0.00, 0.00, 0.00, 0.00, 1, 1, 10,  40.3886847, -87.5132139,   220.0, 2023, 11, 12, 16,  9,  7,        0,        0,   0,   0,   1.5,   0.8,   1.3,  0, 35,  0,  0,  0,  0,  0,  0,  0, 26,  0, 27,  0,  0,  0,  0,  0,  0,  0,  0, 29,  0, 21, 30, 27,  0,  0, 17,  0,  0, 29, 31
6, 8183, 2,KN4UIR,     0.00, 3,   boost,   58.34, 100482.00,   70.41,    3.60,    7.05, 20.6, 9.63, 0.00, 4.03,  68.15,   0.32,   0.83,  11.61,   1.63,  -0.08,   6.91,   0.01,   3.04,   1.62, 9.53, 0.00, 0.00, 0.00, 0.00, 1, 1, 10,  40.3886847, -87.5132139,   220.0, 2023, 11, 12, 16,  9,  7,        0,        0,   0,   0,   1.5,   0.8,   1.3,  0, 35,  0,  0,  0,  0,  0,  0,  0, 26,  0, 27,  0,  0,  0,  0,  0,  0,  0,  0, 29,  0, 21, 30, 27,  0,  0, 17,  0,  0, 29, 31
6, 8183, 2,KN4UIR,     0.00, 3,   boost,   58.34, 100482.00,   70.41,    3.60,    7.05, 20.6, 9.63, 0.00, 4.03,  68.15,   0.32,   0.83,  11.61,   1.63,  -0.08,   6.91,   0.01,   3.04,   1.62, 9.53, 0.00, 0.00, 0.00, 0.00, 1, 1, 10,  40.3886847, -87.5132139,   220.0, 2023, 11, 12, 16,  9,  7,        0,        0,   0,   0,   1.5,   0.8,   1.3,  0, 35,  0,  0,  0,  0,  0,  0,  0, 26,  0, 27,  0,  0,  0,  0,  0,  0,  0,  0, 29,  0, 21, 30, 27,  0,  0, 17,  0,  0, 29, 31
6, 8183, 2,KN4UIR,     0.00, 3,   boost,   58.34, 100482.00,   70.41,    3.60,    7.05, 20.6, 9.63, 0.00, 4.03,  68.15,   0.32,   0.83,  11.61,   1.63,  -0.08,   6.91,   0.01,   3.04,   1.62, 9.53, 0.00, 0.00, 0.00, 0.00, 1, 1, 10,  40.3886847, -87.5132139,   220.0, 2023, 11, 12, 16,  9,  7,        0,        0,   0,   0,   1.5,   0.8,   1.3,  0, 35,  0,  0,  0,  0,  0,  0,  0, 26,  0, 27,  0,  0,  0,  0,  0,  0,  0,  0, 29,  0, 21, 30, 27,  0,  0, 17,  0,  0, 29, 31
6, 8183, 2,KN4UIR,     0.00, 3,   boost,   58.34, 100482.00,   70.41,    3.60,    7.05, 20.6, 9.63, 0.00, 4.03,  68.15,   0.32,   0.83,  11.61,   1.63,  -0.08,   6.91,   0.01,   3.04,   1.62, 9.53, 0.00, 0.00, 0.00, 0.00, 1, 1, 10,  40.3886847, -87.5132139,   220.0, 2023, 11, 12, 16,  9,  7,        0,        0,   0,   0,   1.5,   0.8,   1.3,  0, 35,  0,  0,  0,  0,  0,  0,  0, 26,  0, 27,  0,  0,  0,  0,  0,  0,  0,  0, 29,  0, 21, 30, 27,  0,  0, 17,  0,  0, 29, 31
6, 8183, 2,KN4UIR,     0.00, 3,   boost,   58.34, 100482.00,   70.41,    3.60,    7.05, 20.6, 9.63, 0.00, 4.03,  68.15,   0.32,   0.83,  11.61,   1.63,  -0.08,   6.91,   0.01,   3.04,   1.62, 9.53, 0.00, 0.00, 0.00, 0.00, 1, 1, 10,  40.3886847, -87.5132139,   220.0, 2023, 11, 12, 16,  9,  7,        0,        0,   0,   0,   1.5,   0.8,   1.3,  0, 35,  0,  0,  0,  0,  0,  0,  0, 26,  0, 27,  0,  0,  0,  0,  0,  0,  0,  0, 29,  0, 21, 30, 27,  0,  0, 17,  0,  0, 29, 31
6, 8183, 2,KN4UIR,     0.00, 3,   boost,   58.34, 100482.00,   70.41,    3.60,    7.05, 20.6, 9.63, 0.00, 4.03,  68.15,   0.32,   0.83,  11.61,   1.63,  -0.08,   6.91,   0.01,   3.04,   1.62, 9.53, 0.00, 0.00, 0.00, 0.00, 1, 1, 10,  40.3886847, -87.5132139,   220.0, 2023, 11, 12, 16,  9,  7,        0,        0,   0,   0,   1.5,   0.8,   1.3,  0, 35,  0,  0,  0,  0,  0,  0,  0, 26,  0, 27,  0,  0,  0,  0,  0,  0,  0,  0, 29,  0, 21, 30, 27,  0,  0, 17,  0,  0, 29, 31
6, 8183, 2,KN4UIR,     0.00, 3,   boost,   58.34, 100482.00,   70.41,    3.60,    7.05, 20.6, 9.63, 0.00, 4.03,  68.15,   0.32,   0.83,  11.61,   1.63,  -0.08,   6.91,   0.01,   3.04,   1.62, 9.53, 0.00, 0.00, 0.00, 0.00, 1, 1, 10,  40.3886847, -87.5132139,   220.0, 2023, 11, 12, 16,  9,  7,        0,        0,   0,   0,   1.5,   0.8,   1.3,  0, 35,  0,  0,  0,  0,  0,  0,  0, 26,  0, 27,  0,  0,  0,  0,  0,  0,  0,  0, 29,  0, 21, 30, 27,  0,  0, 17,  0,  0, 29, 31
6, 8183, 2,KN4UIR,     0.00, 3,   boost,   58.34, 100482.00,   70.41,    3.60,    7.05, 20.6, 9.63, 0.00, 4.03,  68.15,   0.32,   0.83,  11.61,   1.63,  -0.08,   6.91,   0.01,   3.04,   1.62, 9.53, 0.00, 0.00, 0.00, 0.00, 1, 1, 10,  40.3886847, -87.5132139,   220.0, 2023, 11, 12, 16,  9,  7,        0,        0,   0,   0,   1.5,   0.8,   1.3,  0, 35,  0,  0,  0,  0,  0,  0,  0, 26,  0, 27,  0,  0,  0,  0,  0,  0,  0,  0, 29,  0, 21, 30, 27,  0,  0, 17,  0,  0, 29, 31
6, 8183, 2,KN4UIR,     0.00, 3,   boost,   58.34, 100482.00,   70.41,    3.60,    7.05, 20.6, 9.63, 0.00, 4.03,  68.15,   0.32,   0.83,  11.61,   1.63,  -0.08,   6.91,   0.01,   3.04,   1.62, 9.53, 0.00, 0.00, 0.00, 0.00, 1, 1, 10,  40.3886847, -87.5132139,   220.0, 2023, 11, 12, 16,  9,  7,        0,        0,   0,   0,   1.5,   0.8,   1.3,  0, 35,  0,  0,  0,  0,  0,  0,  0, 26,  0, 27,  0,  0,  0,  0,  0,  0,  0,  0, 29,  0, 21, 30, 27,  0,  0, 17,  0,  0, 29, 31
6, 8183, 2,KN4UIR,     0.00, 3,   boost,   58.34, 100482.00,   70.41,    3.60,    7.05, 20.6, 9.63, 0.00, 4.03,  68.15,   0.32,   0.83,  11.61,   1.63,  -0.08,   6.91,   0.01,   3.04,   1.62, 9.53, 0.00, 0.00, 0.00, 0.00, 1, 1, 10,  40.3886847, -87.5132139,   220.0, 2023, 11, 12, 16,  9,  7,        0,        0,   0,   0,   1.5,   0.8,   1.3,  0, 35,  0,  0,  0,  0,  0,  0,  0, 26,  0, 27,  0,  0,  0,  0,  0,  0,  0,  0, 29,  0, 21, 30, 27,  0,  0, 17,  0,  0, 29, 31
6, 8183, 2,KN4UIR,     0.00, 3,   boost,   58.34, 100482.00,   70.41,    3.60,    7.05, 20.6, 9.63, 0.00, 4.03,  68.15,   0.32,   0.83,  11.61,   1.63,  -0.08,   6.91,   0.01,   3.04,   1.62, 9.53, 0.00, 0.00, 0.00, 0.00, 1, 1, 10,  40.3886847, -87.5132139,   220.0, 2023, 11, 12, 16,  9,  7,        0,        0,   0,   0,   1.5,   0.8,   1.3,  0, 35,  0,  0,  0,  0,  0,  0,  0, 26,  0, 27,  0,  0,  0,  0,  0,  0,  0,  0, 29,  0, 21, 30, 27,  0,  0, 17,  0,  0, 29, 31
6, 8183, 2,KN4UIR,     0.00, 3,   boost,   58.34, 100482.00,   70.41,    3.60,    7.05, 20.6, 9.63, 0.00, 4.03,  68.15,   0.32,   0.83,  11.61,   1.63,  -0.08,   6.91,   0.01,   3.04,   1.62, 9.53, 0.00, 0.00, 0.00, 0.00, 1, 1, 10,  40.3886847, -87.5132139,   220.0, 2023, 11, 12, 16,  9,  7,        0,        0,   0,   0,   1.5,   0.8,   1.3,  0, 35,  0,  0,  0,  0,  0,  0,  0, 26,  0, 27,  0,  0,  0,  0,  0,  0,  0,  0, 29,  0, 21, 30, 27,  0,  0, 17,  0,  0, 29, 31
6, 8183, 2,KN4UIR,     0.00, 3,   boost,   58.34, 100482.00,   70.41,    3.60,    7.05, 20.6, 9.63, 0.00, 4.03,  68.15,   0.32,   0.83,  11.61,   1.63,  -0.08,   6.91,   0.01,   3.04,   1.62, 9.53, 0.00, 0.00, 0.00, 0.00, 1, 1, 10,  40.3886847, -87.5132139,   220.0, 2023, 11, 12, 16,  9,  7,        0,        0,   0,   0,   1.5,   0.8,   1.3,  0, 35,  0,  0,  0,  0,  0,  0,  0, 26,  0, 27,  0,  0,  0,  0,  0,  0,  0,  0, 29,  0, 21, 30, 27,  0,  0, 17,  0,  0, 29, 31
6, 8183, 2,KN4UIR,     0.00, 3,   boost,   58.34, 100482.00,   70.41,    3.60,    7.05, 20.6, 9.63, 0.00, 4.03,  68.15,   0.32,   0.83,  11.61,   1.63,  -0.08,   6.91,   0.01,   3.04,   1.62, 9.53, 0.00, 0.00, 0.00, 0.00, 1, 1, 10,  40.3886847, -87.5132139,   220.0, 2023, 11, 12, 16,  9,  7,        0,        0,   0,   0,   1.5,   0.8,   1.3,  0, 35,  0,  0,  0,  0,  0,  0,  0, 26,  0, 27,  0,  0,  0,  0,  0,  0,  0,  0, 29,  0, 21, 30, 27,  0,  0, 17,  0,  0, 29, 31
6, 8183, 2,KN4UIR,     0.00, 3,   boost,   58.34, 100482.00,   70.41,    3.60,    7.05, 20.6, 9.63, 0.00, 4.03,  68.15,   0.32,   0.83,  11.61,   1.63,  -0.08,   6.91,   0.01,   3.04,   1.62, 9.53, 0.00, 0.00, 0.00, 0.00, 1, 1, 10,  40.3886847, -87.5132139,   220.0, 2023, 11, 12, 16,  9,  7,        0,        0,   0,   0,   1.5,   0.8,   1.3,  0, 35,  0,  0,  0,  0,  0,  0,  0, 26,  0, 27,  0,  0,  0,  0,  0,  0,  0,  0, 29,  0, 21, 30, 27,  0,  0, 17,  0,  0, 29, 31
6, 8183, 2,KN4UIR,     0.00, 3,   boost,   58.34, 100482.00,   70.41,    3.60,    7.05, 20.6, 9.63, 0.00, 4.03,  68.15,   0.32,   0.83,  11.61,   1.63,  -0.08,   6.91,   0.01,   3.04,   1.62, 9.53, 0.00, 0.00, 0.00, 0.00, 1, 1, 10,  40.3886847, -87.5132139,   220.0, 2023, 11, 12, 16,  9,  7,        0,        0,   0,   0,   1.5,   0.8,   1.3,  0, 35,  0,  0,  0,  0,  0,  0,  0, 26,  0, 27,  0,  0,  0,  0,  0,  0,  0,  0, 29,  0, 21, 30, 27,  0,  0, 17,  0,  0, 29, 31
6, 8183, 2,KN4UIR,     0.00, 3,   boost,   58.34, 100482.00,   70.41,    3.60,    7.05, 20.6, 9.63, 0.00, 4.03,  68.15,   0.32,   0.83,  11.61,   1.63,  -0.08,   6.91,   0.01,   3.04,   1.62, 9.53, 0.00, 0.00, 0.00, 0.00, 1, 1, 10,  40.3886847, -87.5132139,   220.0, 2023, 11, 12, 16,  9,  7,        0,        0,   0,   0,   1.5,   0.8,   1.3,  0, 35,  0,  0,  0,  0,  0,  0,  0, 26,  0, 27,  0,  0,  0,  0,  0,  0,  0,  0, 29,  0, 21, 30, 27,  0,  0, 17,  0,  0, 29, 31
6, 8183, 2,KN4UIR,     0.00, 3,   boost,   58.34, 100482.00,   70.41,    3.60,    7.05, 20.6, 9.63, 0.00, 4.03,  68.15,   0.32,   0.83,  11.61,   1.63,  -0.08,   6.91,   0.01,   3.04,   1.62, 9.53, 0.00, 0.00, 0.00, 0.00, 1, 1, 10,  40.3886847, -87.5132139,   220.0, 2023, 11, 12, 16,  9,  7,        0,        0,   0,   0,   1.5,   0.8,   1.3,  0, 35,  0,  0,  0,  0,  0,  0,  0, 26,  0, 27,  0,  0,  0,  0,  0,  0,  0,  0, 29,  0, 21, 30, 27,  0,  0, 17,  0,  0, 29, 31
6, 8183, 2,KN4UIR,     0.00, 3,   boost,   58.34, 100482.00,   70.41,    3.60,    7.05, 20.6, 9.63, 0.00, 4.03,  68.15,   0.32,   0.83,  11.61,   1.63,  -0.08,   6.91,   0.01,   3.04,   1.62, 9.53, 0.00, 0.00, 0.00, 0.00, 1, 1, 10,  40.3886847, -87.5132139,   220.0, 2023, 11, 12, 16,  9,  7,        0,        0,   0,   0,   1.5,   0.8,   1.3,  0, 35,  0,  0,  0,  0,  0,  0,  0, 26,  0, 27,  0,  0,  0,  0,  0,  0,  0,  0, 29,  0, 21, 30, 27,  0,  0, 17,  0,  0, 29, 31
6, 8183, 2,KN4UIR,     0.00, 3,   boost,   58.34, 100482.00,   70.41,    3.60,    7.05, 20.6, 9.63, 0.00, 4.03,  68.15,   0.32,   0.83,  11.61,   1.63,  -0.08,   6.91,   0.01,   3.04,   1.62, 9.53, 0.00, 0.00, 0.00, 0.00, 1, 1, 10,  40.3886847, -87.5132139,   220.0, 2023, 11, 12, 16,  9,  7,        0,        0,   0,   0,   1.5,   0.8,   1.3,  0, 35,  0,  0,  0,  0,  0,  0,  0, 26,  0, 27,  0,  0,  0,  0,  0,  0,  0,  0, 29,  0, 21, 30, 27,  0,  0, 17,  0,  0, 29, 31
6, 8183, 2,KN4UIR,     0.00, 3,   boost,   58.34, 100482.00,   70.41,    3.60,    7.05, 20.6, 9.63, 0.00, 4.03,  68.15,   0.32,   0.83,  11.61,   1.63,  -0.08,   6.91,   0.01,   3.04,   1.62, 9.53, 0.00, 0.00, 0.00, 0.00, 1, 1, 10,  40.3886847, -87.5132139,   220.0, 2023, 11, 12, 16,  9,  7,        0,        0,   0,   0,   1.5,   0.8,   1.3,  0, 35,  0,  0,  0,  0,  0,  0,  0, 26,  0, 27,  0,  0,  0,  0,  0,  0,  0,  0, 29,  0, 21, 30, 27,  0,  0, 17,  0,  0, 29, 31
6, 8183, 2,KN4UIR,     0.00, 3,   boost,   58.34, 100482.00,   70.41,    3.60,    7.05, 20.6, 9.63, 0.00, 4.03,  68.15,   0.32,   0.83,  11.61,   1.63,  -0.08,   6.91,   0.01,   3.04,   1.62, 9.53, 0.00, 0.00, 0.00, 0.00, 1, 1, 10,  40.3886847, -87.5132139,   220.0, 2023, 11, 12, 16,  9,  7,        0,        0,   0,   0,   1.5,   0.8,   1.3,  0, 35,  0,  0,  0,  0,  0,  0,  0, 26,  0, 27,  0,  0,  0,  0,  0,  0,  0,  0, 29,  0, 21, 30, 27,  0,  0, 17,  0,  0, 29, 31
6, 8183, 2,KN4UIR,     0.00, 3,   boost,   58.34, 100482.00,   70.41,    3.60,    7.05, 20.6, 9.63, 0.00, 4.03,  68.15,   0.32,   0.83,  11.61,   1.63,  -0.08,   6.91,   0.01,   3.04,   1.61, 9.53, 0.00, 0.00, 0.00, 0.00, 1, 1, 10,  40.3886847, -87.5132139,   220.0, 2023, 11, 12, 16,  9,  7,        0,        0,   0,   0,   1.5,   0.8,   1.3,  0, 35,  0,  0,  0,  0,  0,  0,  0, 26,  0, 27,  0,  0,  0,  0,  0,  0,  0,  0, 29,  0, 21, 30, 27,  0,  0, 17,  0,  0, 29, 31
6, 8183, 2,KN4UIR,     0.00, 3,   boost,   58.34, 100482.00,   70.41,    3.60,    7.05, 20.6, 9.63, 0.00, 4.03,  68.15,   0.32,   0.83,  11.61,   1.63,  -0.08,   6.91,   0.01,   3.04,   1.60, 9.53, 0.00, 0.00, 0.00, 0.00, 1, 1, 10,  40.3886847, -87.5132139,   220.0, 2023, 11, 12, 16,  9,  7,        0,        0,   0,   0,   1.5,   0.8,   1.3,  0, 35,  0,  0,  0,  0,  0,  0,  0, 26,  0, 27,  0,  0,  0,  0,  0,  0,  0,  0, 29,  0, 21, 30, 27,  0,  0, 17,  0,  0, 29, 31
6, 8183, 2,KN4UIR,     0.00, 3,   boost,   58.34, 100482.00,   70.41,    3.60,    7.05, 20.6, 9.63, 0.00, 4.03,  68.15,   0.32,   0.83,  11.61,   1.63,  -0.08,   6.91,   0.01,   3.04,   1.61, 9.53, 0.00, 0.00, 0.00, 0.00, 1, 1, 10,  40.3886847, -87.5132139,   220.0, 2023, 11, 12, 16,  9,  7,        0,        0,   0,   0,   1.5,   0.8,   1.3,  0, 35,  0,  0,  0,  0,  0,  0,  0, 26,  0, 27,  0,  0,  0,  0,  0,  0,  0,  0, 29,  0, 21, 30, 27,  0,  0, 17,  0,  0, 29, 31
6, 8183, 2,KN4UIR,     0.00, 3,   boost,   58.34, 100482.00,   70.41,    3.60,    7.05, 20.6, 9.63, 0.00, 4.03,  68.15,   0.32,   0.83,  11.61,   1.63,  -0.08,   6.91,   0.01,   3.04,   1.61, 9.53, 0.00, 0.00, 0.00, 0.00, 1, 1, 10,  40.3886847, -87.5132139,   220.0, 2023, 11, 12, 16,  9,  7,        0,        0,   0,   0,   1.5,   0.8,   1.3,  0, 35,  0,  0,  0,  0,  0,  0,  0, 26,  0, 27,  0,  0,  0,  0,  0,  0,  0,  0, 29,  0, 21, 30, 27,  0,  0, 17,  0,  0, 29, 31
6, 8183, 2,KN4UIR,     0.00, 3,   boost,   58.34, 100482.00,   70.41,    3.60,    7.05, 20.6, 9.63, 0.00, 4.03,  68.15,   0.32,   0.83,  11.61,   1.63,  -0.08,   6.91,   0.01,   3.04,   1.60, 9.53, 0.00, 0.00, 0.00, 0.00, 1, 1, 10,  40.3886847, -87.5132139,   220.0, 2023, 11, 12, 16,  9,  7,        0,        0,   0,   0,   1.5,   0.8,   1.3,  0, 35,  0,  0,  0,  0,  0,  0,  0, 26,  0, 27,  0,  0,  0,  0,  0,  0,  0,  0, 29,  0, 21, 30, 27,  0,  0, 17,  0,  0, 29, 31
6, 8183, 2,KN4UIR,     0.00, 3,   boost,   58.34, 100482.00,   70.41,    3.60,    7.05, 20.6, 9.63, 0.00, 4.03,  68.15,   0.32,   0.83,  11.61,   1.63,  -0.08,   6.91,   0.01,   3.04,   1.61, 9.53, 0.00, 0.00, 0.00, 0.00, 1, 1, 10,  40.3886847, -87.5132139,   220.0, 2023, 11, 12, 16,  9,  7,        0,        0,   0,   0,   1.5,   0.8,   1.3,  0, 35,  0,  0,  0,  0,  0,  0,  0, 26,  0, 27,  0,  0,  0,  0,  0,  0,  0,  0, 29,  0, 21, 30, 27,  0,  0, 17,  0,  0, 29, 31
6, 8183, 2,KN4UIR,     0.00, 3,   boost,   58.34, 100482.00,   70.41,    3.60,    7.05, 20.6, 9.63, 0.00, 4.03,  68.15,   0.32,   0.83,  11.61,   1.63,  -0.08,   6.91,   0.01,   3.04,   1.60, 9.53, 0.00, 0.00, 0.00, 0.00, 1, 1, 10,  40.3886847, -87.5132139,   220.0, 2023, 11, 12, 16,  9,  7,        0,        0,   0,   0,   1.5,   0.8,   1.3,  0, 35,  0,  0,  0,  0,  0,  0,  0, 26,  0, 27,  0,  0,  0,  0,  0,  0,  0,  0, 29,  0, 21, 30, 27,  0,  0, 17,  0,  0, 29, 31
6, 8183, 2,KN4UIR,     0.00, 3,   boost,   58.34, 100482.00,   70.41,    3.60,    7.05, 20.6, 9.63, 0.00, 4.03,  68.15,   0.32,   0.83,  11.61,   1.63,  -0.08,   6.91,   0.01,   3.04,   1.58, 9.53, 0.00, 0.00, 0.00, 0.00, 1, 1, 10,  40.3886847, -87.5132139,   220.0, 2023, 11, 12, 16,  9,  7,        0,        0,   0,   0,   1.5,   0.8,   1.3,  0, 35,  0,  0,  0,  0,  0,  0,  0, 26,  0, 27,  0,  0,  0,  0,  0,  0,  0,  0, 29,  0, 21, 30, 27,  0,  0, 17,  0,  0, 29, 31
6, 8183, 2,KN4UIR,     0.00, 3,   boost,   58.34, 100482.00,   70.41,    3.60,    7.05, 20.6, 9.63, 0.00, 4.03,  68.15,   0.32,   0.83,  11.61,   1.63,  -0.08,   6.91,   0.01,   3.04,   1.56, 9.53, 0.00, 0.00, 0.00, 0.00, 1, 1, 10,  40.3886847, -87.5132139,   220.0, 2023, 11, 12, 16,  9,  7,        0,        0,   0,   0,   1.5,   0.8,   1.3,  0, 35,  0,  0,  0,  0,  0,  0,  0, 26,  0, 27,  0,  0,  0,  0,  0,  0,  0,  0, 29,  0, 21, 30, 27,  0,  0, 17,  0,  0, 29, 31
6, 8183, 2,KN4UIR,     0.00, 3,   boost,   58.34, 100482.00,   70.41,    3.60,    7.05, 20.6, 9.63, 0.00, 4.03,  68.15,   0.32,   0.83,  11.61,   1.63,  -0.08,   6.91,   0.01,   3.04,   1.55, 9.53, 0.00, 0.00, 0.00, 0.00, 1, 1, 10,  40.3886847, -87.5132139,   220.0, 2023, 11, 12, 16,  9,  7,        0,        0,   0,   0,   1.5,   0.8,   1.3,  0, 35,  0,  0,  0,  0,  0,  0,  0, 26,  0, 27,  0,  0,  0,  0,  0,  0,  0,  0, 29,  0, 21, 30, 27,  0,  0, 17,  0,  0, 29, 31
6, 8183, 2,KN4UIR,     0.00, 3,   boost,   58.34, 100482.00,   70.41,    3.60,    7.05, 20.6, 9.63, 0.00, 4.03,  68.15,   0.32,   0.83,  11.61,   1.63,  -0.08,   6.91,   0.01,   3.04,   1.52, 9.53, 0.00, 0.00, 0.00, 0.00, 1, 1, 10,  40.3886847, -87.5132139,   220.0, 2023, 11, 12, 16,  9,  7,        0,        0,   0,   0,   1.5,   0.8,   1.3,  0, 35,  0,  0,  0,  0,  0,  0,  0, 26,  0, 27,  0,  0,  0,  0,  0,  0,  0,  0, 29,  0, 21, 30, 27,  0,  0, 17,  0,  0, 29, 31
6, 8183, 2,KN4UIR,     0.00, 3,   boost,   58.34, 100482.00,   70.41,    3.60,    7.05, 20.6, 9.63, 0.00, 4.03,  68.15,   0.32,   0.83,  11.61,   1.63,  -0.08,   6.91,   0.01,   3.04,   1.52, 9.53, 0.00, 0.00, 0.00, 0.00, 1, 1, 10,  40.3886847, -87.5132139,   220.0, 2023, 11, 12, 16,  9,  7,        0,        0,   0,   0,   1.5,   0.8,   1.3,  0, 35,  0,  0,  0,  0,  0,  0,  0, 26,  0, 27,  0,  0,  0,  0,  0,  0,  0,  0, 29,  0, 21, 30, 27,  0,  0, 17,  0,  0, 29, 31
6, 8183, 2,KN4UIR,     0.01, 3,   boost,   58.34, 100481.00,   70.49,    3.69,    7.63, 20.6, 9.63, 0.00, 4.03,  65.66,  -0.61,  -0.91,  13.32,  -1.55,   0.83,   6.91,   0.01,   3.04,   1.52, 9.53, 0.00, 0.00, 0.00, 0.00, 1, 1, 10,  40.3886847, -87.5132139,   220.0, 2023, 11, 12, 16,  9,  7,        0,        0,   0,   0,   1.5,   0.8,   1.3,  0, 35,  0,  0,  0,  0,  0,  0,  0, 26,  0, 27,  0,  0,  0,  0,  0,  0,  0,  0, 29,  0, 21, 30, 27,  0,  0, 17,  0,  0, 29, 31
6, 8183, 2,KN4UIR,     0.01, 3,   boost,   58.34, 100481.00,   70.49,    3.69,    7.63, 20.6, 9.63, 0.00, 4.03,  65.66,  -0.61,  -0.91,  13.32,  -1.55,   0.83,   6.91,   0.01,   3.04,   1.52, 9.53, 0.00, 0.00, 0.00, 0.00, 1, 1, 10,  40.3886847, -87.5132139,   220.0, 2023, 11, 12, 16,  9,  7,        0,        0,   0,   0,   1.5,   0.8,   1.3,  0, 35,  0,  0,  0,  0,  0,  0,  0, 26,  0, 27,  0,  0,  0,  0,  0,  0,  0,  0, 29,  0, 21, 30, 27,  0,  0, 17,  0,  0, 29, 31
6, 8183, 2,KN4UIR,     0.02, 3,   boost,   59.34, 100487.00,   69.99,    3.18,    8.22, 20.6, 9.62, 0.00, 4.02,  66.11,  -1.82,   2.02,  19.79,   0.53,  -0.45,   6.91,   0.01,   3.02,   1.52, 9.53, 0.00, 0.00, 0.00, 0.00, 1, 1, 10,  40.3886847, -87.5132139,   220.0, 2023, 11, 12, 16,  9,  7,        0,        0,   0,   0,   1.5,   0.8,   1.3,  0, 35,  0,  0,  0,  0,  0,  0,  0, 26,  0, 27,  0,  0,  0,  0,  0,  0,  0,  0, 29,  0, 21, 30, 27,  0,  0, 17,  0,  0, 29, 31
6, 8183, 2,KN4UIR,     0.02, 3,   boost,   59.34, 100487.00,   69.99,    3.18,    8.22, 20.6, 9.62, 0.00, 4.02,  66.11,  -1.82,   2.02,  19.79,   0.53,  -0.45,   6.91,   0.01,   3.02,   1.52, 9.53, 0.00, 0.00, 0.00, 0.00, 1, 1, 10,  40.3886847, -87.5132139,   220.0, 2023, 11, 12, 16,  9,  7,        0,        0,   0,   0,   1.5,   0.8,   1.3,  0, 35,  0,  0,  0,  0,  0,  0,  0, 26,  0, 27,  0,  0,  0,  0,  0,  0,  0,  0, 29,  0, 21, 30, 27,  0,  0, 17,  0,  0, 29, 31
6, 8183, 2,KN4UIR,     0.03, 3,   boost,   58.84, 100483.00,   70.33,    3.52,    8.81, 20.6, 9.62, 0.00, 4.02,  67.97,  -0.63,   0.44,  23.69,  -2.77,  -0.27,   6.91,   0.01,   3.03,   1.53, 9.53, 0.00, 0.00, 0.00, 0.00, 1, 1, 10,  40.3886847, -87.5132139,   220.0, 2023, 11, 12, 16,  9,  7,        0,        0,   0,   0,   1.5,   0.8,   1.3,  0, 35,  0,  0,  0,  0,  0,  0,  0, 26,  0, 27,  0,  0,  0,  0,  0,  0,  0,  0, 29,  0, 21, 30, 27,  0,  0, 17,  0,  0, 29, 31
6, 8183, 2,KN4UIR,     0.04, 3,   boost,   60.35, 100471.00,   71.33,    4.53,    9.40, 20.6, 9.62, 0.00, 4.02,  67.97,  -0.63,   0.44,  23.69,  -2.77,  -0.27,   6.91,   0.01,   3.03,   1.54, 9.53, 0.00, 0.00, 0.00, 0.00, 1, 1, 10,  40.3886847, -87.5132139,   220.0, 2023, 11, 12, 16,  9,  7,        0,        0,   0,   0,   1.5,   0.8,   1.3,  0, 35,  0,  0,  0,  0,  0,  0,  0, 26,  0, 27,  0,  0,  0,  0,  0,  0,  0,  0, 29,  0, 21, 30, 27,  0,  0, 17,  0,  0, 29, 31
6, 8183, 2,KN4UIR,     0.05, 3,   boost,   58.84, 100473.00,   71.17,    4.36,    9.99, 20.6, 9.62, 0.00, 4.02,  68.04,  -0.29,  -0.84,  24.36,  -2.40,  -0.08,   6.91,   0.01,   3.03,   1.55, 9.53, 0.00, 0.00, 0.00, 0.00, 1, 1, 10,  40.3886847, -87.5132139,   220.0, 2023, 11, 12, 16,  9,  7,        0,        0,   0,   0,   1.5,   0.8,   1.3,  0, 35,  0,  0,  0,  0,  0,  0,  0, 26,  0, 27,  0,  0,  0,  0,  0,  0,  0,  0, 29,  0, 21, 30, 27,  0,  0, 17,  0,  0, 29, 31
6, 8183, 2,KN4UIR,     0.06, 3,   boost,   57.83, 100474.00,   71.08,    4.27,   10.58, 20.6, 9.62, 0.00, 4.02,  67.83,  -0.87,  -1.06,  25.34,  -0.45,  -0.88,   6.91,   0.01,   3.02,   1.56, 9.53, 0.00, 0.00, 0.00, 0.00, 1, 1, 10,  40.3886847, -87.5132139,   220.0, 2023, 11, 12, 16,  9,  7,        0,        0,   0,   0,   1.5,   0.8,   1.3,  0, 35,  0,  0,  0,  0,  0,  0,  0, 26,  0, 27,  0,  0,  0,  0,  0,  0,  0,  0, 29,  0, 21, 30, 27,  0,  0, 17,  0,  0, 29, 31
6, 8183, 2,KN4UIR,     0.07, 3,   boost,   59.34, 100471.00,   71.33,    4.53,   11.17, 20.6, 9.62, 0.00, 4.02,  68.05,   1.82,   1.13,  28.27,  -0.02,  -0.81,   6.91,   0.01,   3.02,   1.57, 9.53, 0.00, 0.00, 0.00, 0.00, 1, 1, 10,  40.3886847, -87.5132139,   220.0, 2023, 11, 12, 16,  9,  7,        0,        0,   0,   0,   1.5,   0.8,   1.3,  0, 35,  0,  0,  0,  0,  0,  0,  0, 26,  0, 27,  0,  0,  0,  0,  0,  0,  0,  0, 29,  0, 21, 30, 27,  0,  0, 17,  0,  0, 29, 31
6, 8183, 2,KN4UIR,     0.08, 3,   boost,   59.34, 100476.00,   70.91,    4.11,   11.75, 20.6, 9.62, 0.00, 4.02,  67.58,  -1.36,   0.55,  28.57,  -0.02,   2.18,   6.91,   0.01,   3.02,   1.55, 9.53, 0.00, 0.00, 0.00, 0.00, 1, 1, 10,  40.3886847, -87.5132139,   220.0, 2023, 11, 12, 16,  9,  7,        0,        0,   0,   0,   1.5,   0.8,   1.3,  0, 35,  0,  0,  0,  0,  0,  0,  0, 26,  0, 27,  0,  0,  0,  0,  0,  0,  0,  0, 29,  0, 21, 30, 27,  0,  0, 17,  0,  0, 29, 31
6, 8183, 2,KN4UIR,     0.09, 3,   boost,   59.34, 100452.00,   72.93,    6.12,   12.34, 20.6, 9.62, 0.00, 4.02,  68.19,   4.58,  -2.51,  27.17,  -1.55,  -1.30,   6.91,   0.01,   3.02,   1.56, 9.53, 0.00, 0.00, 0.00, 0.00, 1, 1, 10,  40.3886847, -87.5132139,   220.0, 2023, 11, 12, 16,  9,  7,        0,        0,   0,   0,   1.5,   0.8,   1.3,  0, 35,  0,  0,  0,  0,  0,  0,  0, 26,  0, 27,  0,  0,  0,  0,  0,  0,  0,  0, 29,  0, 21, 30, 27,  0,  0, 17,  0,  0, 29, 31
6, 8183, 2,KN4UIR,     0.10, 3,   boost,   55.32, 100474.00,   71.08,    4.27,   12.92, 20.6, 9.62, 0.00, 4.02,  66.42,  -2.02,   0.15,  37.85,  -6.12,  -3.50,   6.91,   0.01,   3.02,   1.62, 9.53, 0.00, 0.00, 0.00, 0.00, 1, 1, 10,  40.3886847, -87.5132139,   220.0, 2023, 11, 12, 16,  9,  7,        0,        0,   0,   0,   1.5,   0.8,   1.3,  0, 35,  0,  0,  0,  0,  0,  0,  0, 26,  0, 27,  0,  0,  0,  0,  0,  0,  0,  0, 29,  0, 21, 30, 27,  0,  0, 17,  0,  0, 29, 31
6, 8183, 2,KN4UIR,     0.11, 3,   boost,   59.34, 100466.00,   71.75,    4.94,   13.50, 20.6, 9.62, 0.00, 4.02,  66.11,   0.43,  -1.36,  35.47,  -2.71,   0.16,   6.91,   0.01,   3.02,   1.63, 9.53, 0.00, 0.00, 0.00, 0.00, 1, 1, 10,  40.3886847, -87.5132139,   220.0, 2023, 11, 12, 16,  9,  7,        0,        0,   0,   0,   1.5,   0.8,   1.3,  0, 35,  0,  0,  0,  0,  0,  0,  0, 26,  0, 27,  0,  0,  0,  0,  0,  0,  0,  0, 29,  0, 21, 30, 27,  0,  0, 17,  0,  0, 29, 31
6, 8183, 2,KN4UIR,     0.12, 3,   boost,   57.33, 100456.00,   72.59,    5.78,   14.08, 20.6, 9.62, 0.00, 4.02,  67.16,   1.07,  -0.38,  36.69,  -0.94,   0.65,   6.91,   0.01,   3.02,   1.62, 9.53, 0.00, 0.00, 0.00, 0.00, 1, 1, 10,  40.3886847, -87.5132139,   220.0, 2023, 11, 12, 16,  9,  7,        0,        0,   0,   0,   1.5,   0.8,   1.3,  0, 35,  0,  0,  0,  0,  0,  0,  0, 26,  0, 27,  0,  0,  0,  0,  0,  0,  0,  0, 29,  0, 21, 30, 27,  0,  0, 17,  0,  0, 29, 31
6, 8183, 2,KN4UIR,     0.13, 3,   boost,   58.34, 100413.00,   76.20,    9.39,   14.66, 20.6, 9.62, 0.00, 4.02,  66.64,  -0.40,  -2.10,  47.19,  -3.13,  -2.40,   6.91,   0.01,   3.02,   1.66, 9.53, 0.00, 0.00, 0.00, 0.00, 1, 1, 10,  40.3886847, -87.5132139,   220.0, 2023, 11, 12, 16,  9,  7,        0,        0,   0,   0,   1.5,   0.8,   1.3,  0, 35,  0,  0,  0,  0,  0,  0,  0, 26,  0, 27,  0,  0,  0,  0,  0,  0,  0,  0, 29,  0, 21, 30, 27,  0,  0, 17,  0,  0, 29, 31
6, 8183, 2,KN4UIR,     0.14, 3,   boost,   59.34, 100453.00,   72.84,    6.03,   15.24, 20.6, 9.62, 0.00, 4.02,  64.10,  -2.63,  -0.04,  36.51,   0.10,   0.35,   6.91,   0.01,   3.02,   1.65, 9.53, 0.00, 0.00, 0.00, 0.00, 1, 1, 10,  40.3886847, -87.5132139,   220.0, 2023, 11, 12, 16,  9,  7,        0,        0,   0,   0,   1.5,   0.8,   1.3,  0, 35,  0,  0,  0,  0,  0,  0,  0, 26,  0, 27,  0,  0,  0,  0,  0,  0,  0,  0, 29,  0, 21, 30, 27,  0,  0, 17,  0,  0, 29, 31
6, 8183, 2,KN4UIR,     0.15, 3,   boost,   56.83, 100450.00,   73.09,    6.29,   15.82, 20.6, 9.62, 0.00, 4.02,  64.10,  -2.63,  -0.04,  36.51,   0.10,   0.35,   6.91,   0.01,   3.02,   1.65, 9.53, 0.00, 0.00, 0.00, 0.00, 1, 1, 10,  40.3886847, -87.5132139,   220.0, 2023, 11, 12, 16,  9,  7,        0,        0,   0,   0,   1.5,   0.8,   1.3,  0, 35,  0,  0,  0,  0,  0,  0,  0, 26,  0, 27,  0,  0,  0,  0,  0,  0,  0,  0, 29,  0, 21, 30, 27,  0,  0, 17,  0,  0, 29, 31
6, 8183, 2,KN4UIR,     0.16, 3,   boost,   58.84, 100461.00,   72.17,    5.36,   16.40, 20.6, 9.62, 0.00, 4.02,  66.37,  -0.88,  -0.50,  24.91,   2.54,  -0.45,   6.91,   0.01,   3.02,   1.64, 9.53, 0.00, 0.00, 0.00, 0.00, 1, 1, 10,  40.3886847, -87.5132139,   220.0, 2023, 11, 12, 16,  9,  7,        0,        0,   0,   0,   1.5,   0.8,   1.3,  0, 35,  0,  0,  0,  0,  0,  0,  0, 26,  0, 27,  0,  0,  0,  0,  0,  0,  0,  0, 29,  0, 21, 30, 27,  0,  0, 17,  0,  0, 29, 31
6, 8183, 2,KN4UIR,     0.17, 3,   boost,   54.31, 100450.00,   73.09,    6.29,   16.97, 20.6, 9.62, 0.00, 4.02,  64.38,  -3.01,  -1.72,  23.63,  -0.81,  -0.51,   6.91,   0.01,   3.02,   1.65, 9.53, 0.00, 0.00, 0.00, 0.00, 1, 1, 10,  40.3886847, -87.5132139,   220.0, 2023, 11, 12, 16,  9,  7,        0,        0,   0,   0,   1.5,   0.8,   1.3,  0, 35,  0,  0,  0,  0,  0,  0,  0, 26,  0, 27,  0,  0,  0,  0,  0,  0,  0,  0, 29,  0, 21, 30, 27,  0,  0, 17,  0,  0, 29, 31
6, 8183, 2,KN4UIR,     0.18, 3,   boost,   58.34, 100465.00,   71.84,    5.03,   17.54, 20.6, 9.62, 0.00, 4.02,  66.44,  -1.86,  -2.08,  23.75,  -1.61,  -0.27,   6.91,   0.01,   3.02,   1.66, 9.53, 0.00, 0.00, 0.00, 0.00, 1, 1, 10,  40.3886847, -87.5132139,   220.0, 2023, 11, 12, 16,  9,  7,        0,        0,   0,   0,   1.5,   0.8,   1.3,  0, 35,  0,  0,  0,  0,  0,  0,  0, 26,  0, 27,  0,  0,  0,  0,  0,  0,  0,  0, 29,  0, 21, 30, 27,  0,  0, 17,  0,  0, 29, 31
6, 8183, 2,KN4UIR,     0.19, 3,   boost,   59.34, 100432.00,   74.60,    7.79,   18.12, 20.6, 9.62, 0.00, 4.02,  63.70,  -3.78,  -2.33,  21.74,  -3.56,  -1.30,   6.91,   0.01,   3.02,   1.68, 9.53, 0.00, 0.00, 0.00, 0.00, 1, 1, 10,  40.3886847, -87.5132139,   220.0, 2023, 11, 12, 16,  9,  7,        0,        0,   0,   0,   1.5,   0.8,   1.3,  0, 35,  0,  0,  0,  0,  0,  0,  0, 26,  0, 27,  0,  0,  0,  0,  0,  0,  0,  0, 29,  0, 21, 30, 27,  0,  0, 17,  0,  0, 29, 31
6, 8183, 2,KN4UIR,     0.20, 3,   boost,   56.33, 100438.00,   74.10,    7.29,   18.70, 20.6, 9.62, 0.00, 4.02,  65.27,  -0.54,  -3.11,  19.42,  -2.52,  -1.36,   6.91,   0.01,   3.02,   1.71, 9.53, 0.00, 0.00, 0.00, 0.00, 1, 1, 10,  40.3886847, -87.5132139,   220.0, 2023, 11, 12, 16,  9,  7,        0,        0,   0,   0,   1.5,   0.8,   1.3,  0, 35,  0,  0,  0,  0,  0,  0,  0, 26,  0, 27,  0,  0,  0,  0,  0,  0,  0,  0, 29,  0, 21, 30, 27,  0,  0, 17,  0,  0, 29, 31
6, 8183, 2,KN4UIR,     0.21, 3,   boost,   57.83, 100410.00,   76.45,    9.64,   19.28, 20.6, 9.62, 0.00, 4.02,  66.52,   0.88,  -0.83,  20.95,   1.20,  -0.88,   6.91,   0.01,   3.02,   1.71, 9.53, 0.00, 0.00, 0.00, 0.00, 1, 1, 10,  40.3886847, -87.5132139,   220.0, 2023, 11, 12, 16,  9,  7,        0,        0,   0,   0,   1.5,   0.8,   1.3,  0, 35,  0,  0,  0,  0,  0,  0,  0, 26,  0, 27,  0,  0,  0,  0,  0,  0,  0,  0, 29,  0, 21, 30, 27,  0,  0, 17,  0,  0, 29, 31
6, 8183, 2,KN4UIR,     0.22, 3,   boost,   58.84, 100398.00,   77.45,   10.65,   19.86, 20.6, 9.62, 0.00, 4.02,  65.16,  -2.72,  -3.34,  13.62,   0.59,   0.04,   6.91,   0.01,   3.02,   1.71, 9.53, 0.00, 0.00, 0.00, 0.00, 1, 1, 10,  40.3886847, -87.5132139,   220.0, 2023, 11, 12, 16,  9,  7,        0,        0,   0,   0,   1.5,   0.8,   1.3,  0, 35,  0,  0,  0,  0,  0,  0,  0, 26,  0, 27,  0,  0,  0,  0,  0,  0,  0,  0, 29,  0, 21, 30, 27,  0,  0, 17,  0,  0, 29, 31
6, 8183, 2,KN4UIR,     0.23, 3,   boost,   59.85, 100427.00,   75.02,    8.21,   20.45, 20.6, 9.62, 0.00, 4.02,  66.20,   1.71,  -2.58,   7.88,  -1.91,  -0.75,   6.91,   0.01,   3.02,   1.72, 9.53, 0.00, 0.00, 0.00, 0.00, 1, 1, 10,  40.3886847, -87.5132139,   220.0, 2023, 11, 12, 16,  9,  7,        0,        0,   0,   0,   1.5,   0.8,   1.3,  0, 35,  0,  0,  0,  0,  0,  0,  0, 26,  0, 27,  0,  0,  0,  0,  0,  0,  0,  0, 29,  0, 21, 30, 27,  0,  0, 17,  0,  0, 29, 31
6, 8183, 2,KN4UIR,     0.24, 3,   boost,   59.34, 100421.00,   75.52,    8.72,   21.04, 20.6, 9.62, 0.00, 4.02,  67.03,   2.11,   1.22,  12.83,   1.75,  -1.36,   6.91,   0.01,   3.04,   1.73, 9.53, 0.00, 0.00, 0.00, 0.00, 1, 1, 10,  40.3886847, -87.5132139,   220.0, 2023, 11, 12, 16,  9,  7,        0,        0,   0,   0,   1.5,   0.8,   1.3,  0, 35,  0,  0,  0,  0,  0,  0,  0, 26,  0, 27,  0,  0,  0,  0,  0,  0,  0,  0, 29,  0, 21, 30, 27,  0,  0, 17,  0,  0, 29, 31
6, 8183, 2,KN4UIR,     0.25, 3,   boost,   58.84, 100411.00,   76.36,    9.56,   21.63, 20.6, 9.62, 0.00, 4.02,  67.63,   0.29,   2.62,  14.05,   2.67,   0.35,   6.91,   0.01,   3.04,   1.72, 9.53, 0.00, 0.00, 0.00, 0.00, 1, 1, 10,  40.3886847, -87.5132139,   220.0, 2023, 11, 12, 16,  9,  7,        0,        0,   0,   0,   1.5,   0.8,   1.3,  0, 35,  0,  0,  0,  0,  0,  0,  0, 26,  0, 27,  0,  0,  0,  0,  0,  0,  0,  0, 29,  0, 21, 30, 27,  0,  0, 17,  0,  0, 29, 31
6, 8183, 2,KN4UIR,     0.26, 3,   boost,   60.35, 100384.00,   78.63,   11.82,   22.23, 20.6, 9.62, 0.00, 4.02,  67.63,   0.29,   2.62,  14.05,   2.67,   0.35,   6.91,   0.01,   3.04,   1.71, 9.53, 0.00, 0.00, 0.00, 0.00, 1, 1, 10,  40.3886847, -87.5132139,   220.0, 2023, 11, 12, 16,  9,  7,        0,        0,   0,   0,   1.5,   0.8,   1.3,  0, 35,  0,  0,  0,  0,  0,  0,  0, 26,  0, 27,  0,  0,  0,  0,  0,  0,  0,  0, 29,  0, 21, 30, 27,  0,  0, 17,  0,  0, 29, 31
6, 8183, 2,KN4UIR,     0.27, 3,   boost,   58.84, 100396.00,   77.62,   10.81,   22.82, 20.6, 9.62, 0.00, 4.02,  66.92,  -1.47,  -1.25,   8.37,   1.99,   0.35,   6.91,   0.01,   3.04,   1.70, 9.53, 0.00, 0.00, 0.00, 0.00, 1, 1, 10,  40.3886847, -87.5132139,   220.0, 2023, 11, 12, 16,  9,  7,        0,        0,   0,   0,   1.5,   0.8,   1.3,  0, 35,  0,  0,  0,  0,  0,  0,  0, 26,  0, 27,  0,  0,  0,  0,  0,  0,  0,  0, 29,  0, 21, 30, 27,  0,  0, 17,  0,  0, 29, 31
6, 8183, 2,KN4UIR,     0.28, 3,   boost,   57.83, 100400.00,   77.29,   10.48,   23.41, 20.6, 9.62, 0.00, 4.02,  68.00,   0.29,  -1.89,  10.39,  -0.87,   0.04,   6.91,   0.01,   3.04,   1.70, 9.53, 0.00, 0.00, 0.00, 0.00, 1, 1, 10,  40.3886847, -87.5132139,   220.0, 2023, 11, 12, 16,  9,  7,        0,        0,   0,   0,   1.5,   0.8,   1.3,  0, 35,  0,  0,  0,  0,  0,  0,  0, 26,  0, 27,  0,  0,  0,  0,  0,  0,  0,  0, 29,  0, 21, 30, 27,  0,  0, 17,  0,  0, 29, 31
6, 8183, 2,KN4UIR,     0.29, 3,   boost,   59.85, 100364.00,   80.30,   13.50,   24.00, 20.6, 9.62, 0.00, 4.02,  68.00,  -0.32,   0.05,   5.93,   0.22,   2.18,   6.91,   0.01,   3.04,   1.68, 9.53, 0.00, 0.00, 0.00, 0.00, 1, 1, 10,  40.3886847, -87.5132139,   220.0, 2023, 11, 12, 16,  9,  7,        0,        0,   0,   0,   1.5,   0.8,   1.3,  0, 35,  0,  0,  0,  0,  0,  0,  0, 26,  0, 27,  0,  0,  0,  0,  0,  0,  0,  0, 29,  0, 21, 30, 27,  0,  0, 17,  0,  0, 29, 31
6, 8183, 2,KN4UIR,     0.30, 3,   boost,   59.85, 100376.00,   79.30,   12.49,   24.60, 20.6, 9.62, 0.00, 4.02,  67.44,  -3.47,  -2.44,  14.05,   2.18,   0.71,   6.91,   0.01,   3.02,   1.66, 9.53, 0.00, 0.00, 0.00, 0.00, 1, 1, 10,  40.3886847, -87.5132139,   220.0, 2023, 11, 12, 16,  9,  7,        0,        0,   0,   0,   1.5,   0.8,   1.3,  0, 35,  0,  0,  0,  0,  0,  0,  0, 26,  0, 27,  0,  0,  0,  0,  0,  0,  0,  0, 29,  0, 21, 30, 27,  0,  0, 17,  0,  0, 29, 31
6, 8183, 2,KN4UIR,     0.31, 3,   boost,   59.85, 100363.00,   80.39,   13.58,   25.19, 20.6, 9.62, 0.00, 4.02,  69.36,   1.01,  -0.32,  17.22,   0.16,  -1.36,   6.91,   0.01,   3.02,   1.68, 9.53, 0.00, 0.00, 0.00, 0.00, 1, 1, 10,  40.3886847, -87.5132139,   220.0, 2023, 11, 12, 16,  9,  7,        0,        0,   0,   0,   1.5,   0.8,   1.3,  0, 35,  0,  0,  0,  0,  0,  0,  0, 26,  0, 27,  0,  0,  0,  0,  0,  0,  0,  0, 29,  0, 21, 30, 27,  0,  0, 17,  0,  0, 29, 31
6, 8183, 2,KN4UIR,     0.32, 3,   boost,   59.85, 100386.00,   78.46,   11.65,   25.80, 20.6, 9.62, 0.00, 4.02,  69.15,  -1.21,   0.68,  13.25,   1.44,  -1.18,   6.91,   0.01,   3.02,   1.68, 9.53, 0.00, 0.00, 0.00, 0.00, 1, 1, 10,  40.3886847, -87.5132139,   220.0, 2023, 11, 12, 16,  9,  7,        0,        0,   0,   0,   1.5,   0.8,   1.3,  0, 35,  0,  0,  0,  0,  0,  0,  0, 26,  0, 27,  0,  0,  0,  0,  0,  0,  0,  0, 29,  0, 21, 30, 27,  0,  0, 17,  0,  0, 29, 31
6, 8183, 2,KN4UIR,     0.33, 3,   boost,   60.85, 100383.00,   78.71,   11.90,   26.40, 20.6, 9.62, 0.00, 4.02,  68.88,  -0.59,  -1.05,  11.85,  -0.57,   0.41,   6.91,   0.01,   3.02,   1.68, 9.53, 0.00, 0.00, 0.00, 0.00, 1, 1, 10,  40.3886847, -87.5132139,   220.0, 2023, 11, 12, 16,  9,  7,        0,        0,   0,   0,   1.5,   0.8,   1.3,  0, 35,  0,  0,  0,  0,  0,  0,  0, 26,  0, 27,  0,  0,  0,  0,  0,  0,  0,  0, 29,  0, 21, 30, 27,  0,  0, 17,  0,  0, 29, 31
6, 8183, 2,KN4UIR,     0.34, 3,   boost,   62.36, 100362.00,   80.47,   13.66,   27.01, 20.6, 9.63, 0.00, 4.03,  69.80,   0.19,  -0.15,  12.09,  -0.81,  -0.63,   6.91,   0.01,   3.02,   1.69, 9.54, 0.00, 0.00, 0.00, 0.00, 1, 1, 10,  40.3886847, -87.5132139,   220.0, 2023, 11, 12, 16,  9,  7,        0,        0,   0,   0,   1.5,   0.8,   1.3,  0, 35,  0,  0,  0,  0,  0,  0,  0, 26,  0, 27,  0,  0,  0,  0,  0,  0,  0,  0, 29,  0, 21, 30, 27,  0,  0, 17,  0,  0, 29, 31
6, 8183, 2,KN4UIR,     0.34, 3,   boost,   62.36, 100362.00,   80.47,   13.66,   27.01, 20.6, 9.63, 0.00, 4.03,  69.80,   0.19,  -0.15,  12.09,  -0.81,  -0.63,   6.91,   0.01,   3.02,   1.69, 9.54, 0.00, 0.00, 0.00, 0.00, 1, 1, 10,  40.3886847, -87.5132139,   220.0, 2023, 11, 12, 16,  9,  7,        0,        0,   0,   0,   1.5,   0.8,   1.3,  0, 35,  0,  0,  0,  0,  0,  0,  0, 26,  0, 27,  0,  0,  0,  0,  0,  0,  0,  0, 29,  0, 21, 30, 27,  0,  0, 17,  0,  0, 29, 31
6, 8183, 2,KN4UIR,     0.35, 3,   boost,   59.34, 100373.00,   79.55,   12.74,   27.62, 20.6, 9.63, 0.00, 4.03,  69.40,  -0.97,  -0.91,  12.83,  -0.94,  -1.73,   6.91,   0.01,   3.02,   1.71, 9.54, 0.00, 0.00, 0.00, 0.00, 1, 1, 10,  40.3886847, -87.5132139,   220.0, 2023, 11, 12, 16,  9,  7,        0,        0,   0,   0,   1.5,   0.8,   1.3,  0, 35,  0,  0,  0,  0,  0,  0,  0, 26,  0, 27,  0,  0,  0,  0,  0,  0,  0,  0, 29,  0, 21, 30, 27,  0,  0, 17,  0,  0, 29, 31
6, 8183, 2,KN4UIR,     0.36, 3,   boost,   60.85, 100358.00,   80.81,   14.00,   28.23, 20.6, 9.63, 0.00, 4.03,  69.60,  -0.91,  -0.64,  10.08,  -2.22,  -1.55,   6.91,   0.01,   3.02,   1.73, 9.54, 0.00, 0.00, 0.00, 0.00, 1, 1, 10,  40.3886847, -87.5132139,   220.0, 2023, 11, 12, 16,  9,  7,        0,        0,   0,   0,   1.5,   0.8,   1.3,  0, 35,  0,  0,  0,  0,  0,  0,  0, 26,  0, 27,  0,  0,  0,  0,  0,  0,  0,  0, 29,  0, 21, 30, 27,  0,  0, 17,  0,  0, 29, 31
6, 8183, 2,KN4UIR,     0.37, 3,   boost,   62.36, 100351.00,   81.40,   14.59,   28.84, 20.6, 9.63, 0.00, 4.03,  69.60,  -0.91,  -0.64,  10.08,  -2.22,  -1.55,   6.91,   0.00,   3.02,   1.75, 9.54, 0.00, 0.00, 0.00, 0.00, 1, 1, 10,  40.3886847, -87.5132139,   220.0, 2023, 11, 12, 16,  9,  7,        0,        0,   0,   0,   1.5,   0.8,   1.3,  0, 35,  0,  0,  0,  0,  0,  0,  0, 26,  0, 27,  0,  0,  0,  0,  0,  0,  0,  0, 29,  0, 21, 30, 27,  0,  0, 17,  0,  0, 29, 31
6, 8183, 2,KN4UIR,     0.38, 3,   boost,   62.86, 100345.00,   81.90,   15.09,   29.46, 20.6, 9.63, 0.00, 4.03,  69.58,  -0.18,  -0.87,   9.84,  -2.46,  -1.43,   6.91,   0.00,   3.02,   1.77, 9.54, 0.00, 0.00, 0.00, 0.00, 1, 1, 10,  40.3886847, -87.5132139,   220.0, 2023, 11, 12, 16,  9,  7,        0,        0,   0,   0,   1.5,   0.8,   1.3,  0, 35,  0,  0,  0,  0,  0,  0,  0, 26,  0, 27,  0,  0,  0,  0,  0,  0,  0,  0, 29,  0, 21, 30, 27,  0,  0, 17,  0,  0, 29, 31
6, 8183, 2,KN4UIR,     0.39, 3,   boost,   60.85, 100336.00,   82.65,   15.85,   30.08, 20.6, 9.63, 0.00, 4.03,  70.48,  -0.62,  -0.62,   8.37,  -2.95,  -1.97,   6.91,   0.00,   3.02,   1.80, 9.54, 0.00, 0.00, 0.00, 0.00, 1, 1, 10,  40.3886847, -87.5132139,   220.0, 2023, 11, 12, 16,  9,  7,        0,        0,   0,   0,   1.5,   0.8,   1.3,  0, 35,  0,  0,  0,  0,  0,  0,  0, 26,  0, 27,  0,  0,  0,  0,  0,  0,  0,  0, 29,  0, 21, 30, 27,  0,  0, 17,  0,  0, 29, 31
6, 8183, 2,KN4UIR,     0.40, 3,   boost,   63.37, 100324.00,   83.66,   16.85,   30.70, 20.6, 9.63, 0.00, 4.03,  70.43,  -0.28,  -0.54,   7.27,  -3.32,  -2.46,   6.91,   0.00,   3.02,   1.83, 9.54, 0.00, 0.00, 0.00, 0.00, 1, 1, 10,  40.3886847, -87.5132139,   220.0, 2023, 11, 12, 16,  9,  7,        0,        0,   0,   0,   1.5,   0.8,   1.3,  0, 35,  0,  0,  0,  0,  0,  0,  0, 26,  0, 27,  0,  0,  0,  0,  0,  0,  0,  0, 29,  0, 21, 30, 27,  0,  0, 17,  0,  0, 29, 31
6, 8183, 2,KN4UIR,     0.41, 3,   boost,   62.86, 100335.00,   82.74,   15.93,   31.33, 20.6, 9.63, 0.00, 4.03,  69.99,  -0.50,  -0.76,   6.85,  -3.80,  -1.91,   6.91,   0.00,   3.02,   1.86, 9.54, 0.00, 0.00, 0.00, 0.00, 1, 1, 10,  40.3886847, -87.5132139,   220.0, 2023, 11, 12, 16,  9,  7,        0,        0,   0,   0,   1.5,   0.8,   1.3,  0, 35,  0,  0,  0,  0,  0,  0,  0, 26,  0, 27,  0,  0,  0,  0,  0,  0,  0,  0, 29,  0, 21, 30, 27,  0,  0, 17,  0,  0, 29, 31
6, 8183, 2,KN4UIR,     0.42, 3,   boost,   61.86, 100309.00,   84.92,   18.11,   31.96, 20.6, 9.63, 0.00, 4.03,  70.06,  -1.08,  -0.65,   6.24,  -4.35,  -1.97,   6.91,   0.00,   3.02,   1.90, 9.54, 0.00, 0.00, 0.00, 0.00, 1, 1, 10,  40.3886847, -87.5132139,   220.0, 2023, 11, 12, 16,  9,  7,        0,        0,   0,   0,   1.5,   0.8,   1.3,  0, 35,  0,  0,  0,  0,  0,  0,  0, 26,  0, 27,  0,  0,  0,  0,  0,  0,  0,  0, 29,  0, 21, 30, 27,  0,  0, 17,  0,  0, 29, 31
6, 8183, 2,KN4UIR,     0.42, 3,   boost,   61.86, 100309.00,   84.92,   18.11,   31.96, 20.6, 9.63, 0.00, 4.03,  70.06,  -1.08,  -0.65,   6.24,  -4.35,  -1.97,   6.91,   0.00,   3.02,   1.90, 9.54, 0.00, 0.00, 0.00, 0.00, 1, 1, 10,  40.3886847, -87.5132139,   220.0, 2023, 11, 12, 16,  9,  7,        0,        0,   0,   0,   1.5,   0.8,   1.3,  0, 35,  0,  0,  0,  0,  0,  0,  0, 26,  0, 27,  0,  0,  0,  0,  0,  0,  0,  0, 29,  0, 21, 30, 27,  0,  0, 17,  0,  0, 29, 31
6, 8183, 2,KN4UIR,     0.42, 3,   boost,   61.86, 100309.00,   84.92,   18.11,   31.96, 20.6, 9.63, 0.00, 4.03,  70.06,  -1.08,  -0.65,   6.24,  -4.35,  -1.97,   6.91,   0.00,   3.02,   1.90, 9.54, 0.00, 0.00, 0.00, 0.00, 1, 1, 10,  40.3886847, -87.5132139,   220.0, 2023, 11, 12, 16,  9,  7,        0,        0,   0,   0,   1.5,   0.8,   1.3,  0, 35,  0,  0,  0,  0,  0,  0,  0, 26,  0, 27,  0,  0,  0,  0,  0,  0,  0,  0, 29,  0, 21, 30, 27,  0,  0, 17,  0,  0, 29, 31
6, 8183, 2,KN4UIR,     0.43, 3,   boost,   65.38, 100333.00,   82.91,   16.10,   32.59, 20.6, 9.63, 0.00, 4.03,  70.12,  -0.25,  -0.53,   5.14,  -4.54,  -2.22,   6.91,   0.00,   3.02,   1.93, 9.54, 0.00, 0.00, 0.00, 0.00, 1, 1, 10,  40.3886937, -87.5132369,   231.0, 2023, 11, 12, 16,  9,  8,        2,       11, 297,  79,   1.5,   0.8,   1.3,  0, 35,  0,  0,  0,  0,  0,  0,  0, 25,  0, 26,  0,  0,  0,  0,  0,  0,  0,  0, 29,  0, 22, 29, 26,  0,  0, 17,  0,  0, 28, 31
6, 8183, 2,KN4UIR,     0.44, 3,   boost,   62.36, 100327.00,   83.41,   16.60,   33.22, 20.6, 9.63, 0.00, 4.03,  70.82,  -0.06,  -0.52,   3.06,  -4.90,  -2.16,   6.91,   0.00,   3.02,   1.97, 9.54, 0.00, 0.00, 0.00, 0.00, 1, 1, 10,  40.3886937, -87.5132369,   231.0, 2023, 11, 12, 16,  9,  8,        2,       11, 297,  79,   1.5,   0.8,   1.3,  0, 35,  0,  0,  0,  0,  0,  0,  0, 25,  0, 26,  0,  0,  0,  0,  0,  0,  0,  0, 29,  0, 22, 29, 26,  0,  0, 17,  0,  0, 28, 31
6, 8183, 2,KN4UIR,     0.45, 3,   boost,   64.37, 100309.00,   84.92,   18.11,   33.86, 20.6, 9.63, 0.00, 4.03,  70.76,  -0.04,  -0.72,   1.05,  -5.33,  -2.28,   6.91,   0.01,   3.02,   2.01, 9.54, 0.00, 0.00, 0.00, 0.00, 1, 1, 10,  40.3886937, -87.5132369,   231.0, 2023, 11, 12, 16,  9,  8,        2,       11, 297,  79,   1.5,   0.8,   1.3,  0, 35,  0,  0,  0,  0,  0,  0,  0, 25,  0, 26,  0,  0,  0,  0,  0,  0,  0,  0, 29,  0, 22, 29, 26,  0,  0, 17,  0,  0, 28, 31
6, 8183, 2,KN4UIR,     0.46, 3,   boost,   62.86, 100294.00,   86.18,   19.37,   34.49, 20.6, 9.63, 0.00, 4.03,  70.64,  -0.18,  -0.40,  -0.23,  -5.64,  -1.97,   6.91,   0.01,   3.02,   2.05, 9.54, 0.00, 0.00, 0.00, 0.00, 1, 1, 10,  40.3886937, -87.5132369,   231.0, 2023, 11, 12, 16,  9,  8,        2,       11, 297,  79,   1.5,   0.8,   1.3,  0, 35,  0,  0,  0,  0,  0,  0,  0, 25,  0, 26,  0,  0,  0,  0,  0,  0,  0,  0, 29,  0, 22, 29, 26,  0,  0, 17,  0,  0, 28, 31
6, 8183, 2,KN4UIR,     0.47, 3,   boost,   64.37, 100289.00,   86.60,   19.79,   35.12, 20.6, 9.63, 0.00, 4.03,  70.68,   0.15,  -0.47,  -2.92,  -6.37,  -2.40,   6.91,   0.01,   3.02,   2.10, 9.54, 0.00, 0.00, 0.00, 0.00, 1, 1, 10,  40.3886937, -87.5132369,   231.0, 2023, 11, 12, 16,  9,  8,        2,       11, 297,  79,   1.5,   0.8,   1.3,  0, 35,  0,  0,  0,  0,  0,  0,  0, 25,  0, 26,  0,  0,  0,  0,  0,  0,  0,  0, 29,  0, 22, 29, 26,  0,  0, 17,  0,  0, 28, 31
6, 8183, 2,KN4UIR,     0.48, 3,   boost,   61.35, 100302.00,   85.51,   18.70,   35.75, 20.6, 9.63, 0.00, 4.03,  70.68,   0.15,  -0.47,  -2.92,  -6.37,  -2.40,   6.91,   0.01,   3.02,   2.15, 9.54, 0.00, 0.00, 0.00, 0.00, 1, 1, 10,  40.3886937, -87.5132369,   231.0, 2023, 11, 12, 16,  9,  8,        2,       11, 297,  79,   1.5,   0.8,   1.3,  0, 35,  0,  0,  0,  0,  0,  0,  0, 25,  0, 26,  0,  0,  0,  0,  0,  0,  0,  0, 29,  0, 22, 29, 26,  0,  0, 17,  0,  0, 28, 31
6, 8183, 2,KN4UIR,     0.49, 3,   boost,   63.37, 100289.00,   86.60,   19.79,   36.39, 20.6, 9.63, 0.00, 4.03,  70.87,   0.13,  -0.63,  -4.39,  -6.80,  -2.22,   6.91,   0.01,   3.02,   2.20, 9.54, 0.00, 0.00, 0.00, 0.00, 1, 1, 10,  40.3886937, -87.5132369,   231.0, 2023, 11, 12, 16,  9,  8,        2,       11, 297,  79,   1.5,   0.8,   1.3,  0, 35,  0,  0,  0,  0,  0,  0,  0, 25,  0, 26,  0,  0,  0,  0,  0,  0,  0,  0, 29,  0, 22, 29, 26,  0,  0, 17,  0,  0, 28, 31
6, 8183, 2,KN4UIR,     0.50, 3,   boost,   62.86, 100278.00,   87.52,   20.71,   37.02, 20.6, 9.63, 0.00, 4.03,  71.02,  -0.02,  -0.77,  -5.00,  -7.16,  -2.28,   6.91,   0.01,   3.02,   2.26, 9.54, 0.00, 0.00, 0.00, 0.00, 1, 1, 10,  40.3886937, -87.5132369,   231.0, 2023, 11, 12, 16,  9,  8,        2,       11, 297,  79,   1.5,   0.8,   1.3,  0, 35,  0,  0,  0,  0,  0,  0,  0, 25,  0, 26,  0,  0,  0,  0,  0,  0,  0,  0, 29,  0, 22, 29, 26,  0,  0, 17,  0,  0, 28, 31
6, 8183, 2,KN4UIR,     0.51, 3,   boost,   64.37, 100284.00,   87.02,   20.21,   37.65, 20.6, 9.63, 0.00, 4.03,  71.34,  -0.06,  -0.47,  -6.09,  -7.22,  -2.28,   6.91,   0.01,   3.03,   2.31, 9.54, 0.00, 0.00, 0.00, 0.00, 1, 1, 10,  40.3886937, -87.5132369,   231.0, 2023, 11, 12, 16,  9,  8,        2,       11, 297,  79,   1.5,   0.8,   1.3,  0, 35,  0,  0,  0,  0,  0,  0,  0, 25,  0, 26,  0,  0,  0,  0,  0,  0,  0,  0, 29,  0, 22, 29, 26,  0,  0, 17,  0,  0, 28, 31
6, 8183, 2,KN4UIR,     0.52, 3,   boost,   62.86, 100279.00,   87.44,   20.63,   38.28, 20.6, 9.63, 0.00, 4.03,  71.47,  -0.10,  -0.62,  -8.54,  -7.53,  -2.40,   6.91,   0.01,   3.03,   2.37, 9.54, 0.00, 0.00, 0.00, 0.00, 1, 1, 10,  40.3886937, -87.5132369,   231.0, 2023, 11, 12, 16,  9,  8,        2,       11, 297,  79,   1.5,   0.8,   1.3,  0, 35,  0,  0,  0,  0,  0,  0,  0, 25,  0, 26,  0,  0,  0,  0,  0,  0,  0,  0, 29,  0, 22, 29, 26,  0,  0, 17,  0,  0, 28, 31
6, 8183, 2,KN4UIR,     0.53, 3,   boost,   63.87, 100260.00,   89.03,   22.22,   38.92, 20.6, 9.63, 0.00, 4.03,  71.54,  -0.22,  -0.22, -10.43,  -7.77,  -2.52,   6.91,   0.01,   3.03,   2.44, 9.54, 0.00, 0.00, 0.00, 0.00, 1, 1, 10,  40.3886937, -87.5132369,   231.0, 2023, 11, 12, 16,  9,  8,        2,       11, 297,  79,   1.5,   0.8,   1.3,  0, 35,  0,  0,  0,  0,  0,  0,  0, 25,  0, 26,  0,  0,  0,  0,  0,  0,  0,  0, 29,  0, 22, 29, 26,  0,  0, 17,  0,  0, 28, 31
6, 8183, 2,KN4UIR,     0.54, 3,   boost,   63.37, 100256.00,   89.37,   22.56,   39.55, 20.6, 9.63, 0.00, 4.03,  72.06,  -0.12,  -0.41, -11.53,  -8.38,  -2.65,   6.91,   0.01,   3.03,   2.51, 9.54, 0.00, 0.00, 0.00, 0.00, 1, 1, 10,  40.3886937, -87.5132369,   231.0, 2023, 11, 12, 16,  9,  8,        2,       11, 297,  79,   1.5,   0.8,   1.3,  0, 35,  0,  0,  0,  0,  0,  0,  0, 25,  0, 26,  0,  0,  0,  0,  0,  0,  0,  0, 29,  0, 22, 29, 26,  0,  0, 17,  0,  0, 28, 31
6, 8183, 2,KN4UIR,     0.55, 3,   boost,   64.37, 100247.00,   90.12,   23.32,   40.19, 20.6, 9.63, 0.00, 4.03,  71.93,  -0.04,  -0.65, -12.50,  -8.87,  -2.95,   6.91,   0.01,   3.03,   2.58, 9.54, 0.00, 0.00, 0.00, 0.00, 1, 1, 10,  40.3886937, -87.5132369,   231.0, 2023, 11, 12, 16,  9,  8,        2,       11, 297,  79,   1.5,   0.8,   1.3,  0, 35,  0,  0,  0,  0,  0,  0,  0, 25,  0, 26,  0,  0,  0,  0,  0,  0,  0,  0, 29,  0, 22, 29, 26,  0,  0, 17,  0,  0, 28, 31
6, 8183, 2,KN4UIR,     0.56, 3,   boost,   63.37, 100241.00,   90.63,   23.82,   40.83, 20.6, 9.63, 0.00, 4.03,  72.01,  -0.13,  -0.78, -12.99,  -9.36,  -3.01,   6.91,   0.01,   3.03,   2.66, 9.54, 0.00, 0.00, 0.00, 0.00, 1, 1, 10,  40.3886937, -87.5132369,   231.0, 2023, 11, 12, 16,  9,  8,        2,       11, 297,  79,   1.5,   0.8,   1.3,  0, 35,  0,  0,  0,  0,  0,  0,  0, 25,  0, 26,  0,  0,  0,  0,  0,  0,  0,  0, 29,  0, 22, 29, 26,  0,  0, 17,  0,  0, 28, 31
